{'meta': {'api_version': '3.0.868748', 'code': 200, 'issue_date': '20220810'}, 'result': {'items': [{'adm_div': [], 'full_name': 'Москва', 'id': '4504222397630173', 'name': 'Москва', 'point': {'lat': 55.755836, 'lon': 37.617774}, 'subtype': 'city', 'type': 'adm_div'}, {'address_name': '18', 'building_name': 'Moskva, бизнес-центр', 'full_name': 'Нур-Султан, Moskva, бизнес-центр', 'id': '9570784863324652', 'name': 'Moskva, бизнес-центр', 'point': {'lat': 51.124706, 'lon': 71.434765}, 'purpose_name': 'Business center', 'type': 'building'}, {'full_name': 'Moscow', 'id': '5349042514588558', 'name': 'Moscow', 'point': {'lat': 55.739711, 'lon': 37.615773}, 'subtype': 'region', 'type': 'adm_div'}], 'total': 3}}
{'meta': {'api_version': '3.0.868748', 'code': 200, 'issue_date': '20220810'}, 'result': {'items': [{'adm_div': [], 'full_name': 'Санкт-Петербург', 'id': '5348647327760881', 'name': 'Санкт-Петербург', 'point': {'lat': 59.939022, 'lon': 30.315794}, 'subtype': 'city', 'type': 'adm_div'}, {'address_name': 'набережная Обводного канала, 36', 'adm_div': [{'id': '1', 'name': 'Россия', 'type': 'country'}, {'id': '5349042514588559', 'name': 'Санкт-Петербург', 'type': 'region'}, {'city_alias': 'spb', 'flags': {'is_default': True, 'is_region_center': True}, 'id': '5348647327760881', 'is_default': True, 'name': 'Санкт-Петербург', 'type': 'city'}, {'id': '5348634442858504', 'name': 'Фрунзенский район', 'type': 'district'}, {'id': '5348685982466141', 'name': 'Волковское', 'type': 'living_area'}], 'building_name': 'Санкт-Петербург, автовокзал', 'full_name': 'Санкт-Петербург, Санкт-Петербург, автовокзал', 'id': '5348660212718927', 'name': 'Санкт-Петербург, автовокзал', 'point': {'lat': 59.913487, 'lon': 30.357647}, 'purpose_name': 'Вокзал', 'type': 'building'}, {'address_name': 'Пироговская набережная, 5 / Большой Сампсониевский проспект, 2', 'adm_div': [{'id': '1', 'name': 'Россия', 'type': 'country'}, {'id': '5349042514588559', 'name': 'Санкт-Петербург', 'type': 'region'}, {'city_alias': 'spb', 'flags': {'is_default': True, 'is_region_center': True}, 'id': '5348647327760881', 'is_default': True, 'name': 'Санкт-Петербург', 'type': 'city'}, {'id': '5348634442858520', 'name': 'Выборгский район', 'type': 'district'}, {'id': '5348685982466084', 'name': 'Сампсониевское', 'type': 'living_area'}], 'building_name': 'Санкт-Петербург, отель', 'full_name': 'Санкт-Петербург, Санкт-Петербург, отель', 'id': '5348660212731197', 'name': 'Санкт-Петербург, отель', 'point': {'lat': 59.956199, 'lon': 30.34282}, 'purpose_name': 'Гостиница', 'type': 'building'}, {'address_name': 'Футбольная аллея, 1 ст1', 'adm_div': [{'id': '1', 'name': 'Россия', 'type': 'country'}, {'id': '5349042514588559', 'name': 'Санкт-Петербург', 'type': 'region'}, {'city_alias': 'spb', 'flags': {'is_default': True, 'is_region_center': True}, 'id': '5348647327760881', 'is_default': True, 'name': 'Санкт-Петербург', 'type': 'city'}, {'id': '5348634442858500', 'name': 'Петроградский район', 'type': 'district'}, {'id': '5348685982466184', 'name': 'Чкаловское', 'type': 'living_area'}], 'building_name': 'Газпром Арена, стадион', 'full_name': 'Санкт-Петербург, Газпром Арена, стадион', 'id': '5348660248566050', 'name': 'Газпром Арена, стадион', 'point': {'lat': 59.973013, 'lon': 30.220428}, 'purpose_name': 'Спортивное сооружение', 'type': 'building'}, {'adm_div': [{'id': '1', 'name': 'Россия', 'type': 'country'}, {'id': '5349042514588559', 'name': 'Санкт-Петербург', 'type': 'region'}, {'city_alias': 'spb', 'flags': {'is_default': True, 'is_region_center': True}, 'id': '5348647327760881', 'is_default': True, 'name': 'Санкт-Петербург', 'type': 'city'}, {'id': '5348634442858500', 'name': 'Петроградский район', 'type': 'district'}, {'id': '5348685982466184', 'name': 'Чкаловское', 'type': 'living_area'}], 'full_name': 'Санкт-Петербург, Газпром Арена', 'id': '70030076161900785', 'name': 'Газпром Арена', 'point': {'lat': 59.973023, 'lon': 30.220408}, 'subtype': 'stadium', 'subtype_name': 'Стадион Санкт-Петербург', 'type': 'attraction'}, {'address_name': 'Малоохтинский проспект, 64 лит А', 'adm_div': [{'id': '1', 'name': 'Россия', 'type': 'country'}, {'id': '5349042514588559', 'name': 'Санкт-Петербург', 'type': 'region'}, {'city_alias': 'spb', 'flags': {'is_default': True, 'is_region_center': True}, 'id': '5348647327760881', 'is_default': True, 'name': 'Санкт-Петербург', 'type': 'city'}, {'id': '5348634442858521', 'name': 'Красногвардейский район', 'type': 'district'}, {'id': '5348685982466131', 'name': 'Малая Охта', 'type': 'living_area'}], 'building_name': 'Санкт-Петербург Плаза, деловой центр', 'full_name': 'Санкт-Петербург, Санкт-Петербург Плаза, деловой центр', 'id': '5348660212703281', 'name': 'Санкт-Петербург Плаза, деловой центр', 'point': {'lat': 59.93171, 'lon': 30.402769}, 'purpose_name': 'Бизнес-центр', 'type': 'building'}, {'address_name': 'площадь Островского, 7', 'adm_div': [{'id': '1', 'name': 'Россия', 'type': 'country'}, {'id': '5349042514588559', 'name': 'Санкт-Петербург', 'type': 'region'}, {'city_alias': 'spb', 'flags': {'is_default': True, 'is_region_center': True}, 'id': '5348647327760881', 'is_default': True, 'name': 'Санкт-Петербург', 'type': 'city'}, {'id': '5348634442858497', 'name': 'Центральный район', 'type': 'district'}, {'id': '5348685982466137', 'name': 'Муниципальный округ №78', 'type': 'living_area'}], 'building_name': 'Санкт-Петербург, банк', 'full_name': 'Санкт-Петербург, Санкт-Петербург, банк', 'id': '5348660212670065', 'name': 'Санкт-Петербург, банк', 'point': {'lat': 59.931848, 'lon': 30.334795}, 'purpose_name': 'Административное здание', 'type': 'building'}, {'adm_div': [{'id': '1', 'name': 'Россия', 'type': 'country'}, {'id': '5349042514588559', 'name': 'Санкт-Петербург', 'type': 'region'}, {'city_alias': 'spb', 'flags': {'is_default': True, 'is_region_center': True}, 'id': '5348647327760881', 'is_default': True, 'name': 'Санкт-Петербург', 'type': 'city'}, {'id': '5348634442858520', 'name': 'Выборгский район', 'type': 'district'}, {'id': '5348685982466084', 'name': 'Сампсониевское', 'type': 'living_area'}], 'authors': 'Архитектор-руководитель: Сперанский С.Б. Архитекторы: Каменский, Н.В. Струзман В.Э.', 'full_name': 'Санкт-Петербург, Отель Санкт-Петербург', 'id': '70030076129846782', 'name': 'Отель Санкт-Петербург', 'point': {'lat': 59.956807, 'lon': 30.341714}, 'since': 'Здание построено в 1970 г.', 'subtype': 'landmark', 'subtype_name': 'Интересные здания', 'type': 'attraction'}, {'adm_div': [{'id': '1', 'name': 'Россия', 'type': 'country'}, {'id': '5349042514588559', 'name': 'Санкт-Петербург', 'type': 'region'}, {'city_alias': 'spb', 'flags': {'is_default': True, 'is_region_center': True}, 'id': '5348647327760881', 'is_default': True, 'name': 'Санкт-Петербург', 'type': 'city'}], 'full_name': 'Санкт-Петербург, Парк 300-летия Санкт-Петербурга', 'id': '5348711752270240', 'name': 'Парк 300-летия Санкт-Петербурга', 'point': {'lat': 59.982319, 'lon': 30.204187}, 'subtype': 'place', 'type': 'adm_div'}, {'address_name': 'Маяковского, 3а', 'adm_div': [{'id': '1', 'name': 'Россия', 'type': 'country'}, {'id': '5349042514588559', 'name': 'Санкт-Петербург', 'type': 'region'}, {'city_alias': 'spb', 'flags': {'is_default': True, 'is_region_center': True}, 'id': '5348647327760881', 'is_default': True, 'name': 'Санкт-Петербург', 'type': 'city'}, {'id': '5348634442858497', 'name': 'Центральный район', 'type': 'district'}, {'id': '5348685982466135', 'name': 'Литейный', 'type': 'living_area'}], 'building_name': 'Novotel Санкт-Петербург центр, гостиница', 'full_name': 'Санкт-Петербург, Novotel Санкт-Петербург центр, гостиница', 'id': '5348660212703036', 'name': 'Novotel Санкт-Петербург центр, гостиница', 'point': {'lat': 59.933829, 'lon': 30.356784}, 'purpose_name': 'Гостиница', 'type': 'building'}], 'total': 13}}
{'meta': {'api_version': '3.0.868748', 'code': 200, 'issue_date': '20220810'}, 'result': {'items': [{'adm_div': [{'id': '70030076118167430', 'name': 'Новосибирск городской округ', 'type': 'district_area'}], 'full_name': 'Новосибирск', 'id': '141360258613345', 'name': 'Новосибирск', 'point': {'lat': 55.014458, 'lon': 82.942926}, 'subtype': 'city', 'type': 'adm_div'}, {'address_name': '43', 'building_name': 'Новосибирск-Главный, железнодорожный вокзал', 'full_name': 'Новосибирск, Новосибирск-Главный, железнодорожный вокзал', 'id': '141373143526113', 'name': 'Новосибирск-Главный, железнодорожный вокзал', 'point': {'lat': 55.035752, 'lon': 82.896135}, 'purpose_name': 'Terminal', 'type': 'building'}, {'address_name': '13', 'building_name': 'Галерея Новосибирск, торгово-развлекательный центр', 'full_name': 'Новосибирск, Галерея Новосибирск, торгово-развлекательный центр', 'id': '141373143680762', 'name': 'Галерея Новосибирск, торгово-развлекательный центр', 'point': {'lat': 55.043715, 'lon': 82.92223}, 'purpose_name': 'Shopping and entertainment complex', 'type': 'building'}, {'address_name': '1', 'building_name': 'Маринс Парк Отель Новосибирск, гостиница', 'full_name': 'Новосибирск, Маринс Парк Отель Новосибирск, гостиница', 'id': '141373143526064', 'name': 'Маринс Парк Отель Новосибирск, гостиница', 'point': {'lat': 55.035528, 'lon': 82.900675}, 'purpose_name': 'Hotel', 'type': 'building'}, {'address_name': '5', 'building_name': 'ЦУМ Новосибирск', 'full_name': 'Новосибирск, ЦУМ Новосибирск', 'id': '141373143520943', 'name': 'ЦУМ Новосибирск', 'point': {'lat': 55.033566, 'lon': 82.909568}, 'purpose_name': 'Shopping center', 'type': 'building'}, {'full_name': 'Novosibirsk region', 'id': '1267655302447167', 'name': 'Novosibirsk region', 'point': {'lat': 55.312686, 'lon': 78.544938}, 'subtype': 'region', 'type': 'adm_div'}, {'address_name': '21 / 2', 'building_name': 'АЗИМУТ Отель Сибирь-Новосибирск, гостиница', 'full_name': 'Новосибирск, АЗИМУТ Отель Сибирь-Новосибирск, гостиница', 'id': '141373143520802', 'name': 'АЗИМУТ Отель Сибирь-Новосибирск, гостиница', 'point': {'lat': 55.029393, 'lon': 82.904527}, 'purpose_name': 'Hotel', 'type': 'building'}], 'total': 7}}
{'meta': {'api_version': '3.0.868748', 'code': 200, 'issue_date': '20220810'}, 'result': {'items': [{'adm_div': [{'id': '70030076118167795', 'name': 'Екатеринбург городской округ', 'type': 'district_area'}], 'full_name': 'Екатеринбург', 'id': '1267260165455895', 'name': 'Екатеринбург', 'point': {'lat': 56.839656, 'lon': 60.61642}, 'subtype': 'city', 'type': 'adm_div'}, {'address_name': '22', 'building_name': 'Екатеринбург-пассажирский, железнодорожный вокзал', 'full_name': 'Екатеринбург, Екатеринбург-пассажирский, железнодорожный вокзал', 'id': '1267273050385914', 'name': 'Екатеринбург-пассажирский, железнодорожный вокзал', 'point': {'lat': 56.858522, 'lon': 60.604026}, 'purpose_name': 'Terminal', 'type': 'building'}, {'address_name': '5', 'building_name': 'Екатеринбург Арена, стадион', 'full_name': 'Екатеринбург, Екатеринбург Арена, стадион', 'id': '1267273050362458', 'name': 'Екатеринбург Арена, стадион', 'point': {'lat': 56.832543, 'lon': 60.572507}, 'purpose_name': 'Sports facility', 'type': 'building'}, {'authors': 'Архитекторы: Никулин К. К., Васильев С. А., Владимирский Ю. А..', 'full_name': 'Екатеринбург, Екатеринбург Арена', 'id': '70030076161899068', 'name': 'Екатеринбург Арена', 'point': {'lat': 56.832439, 'lon': 60.573569}, 'since': 'Построен в 1957 г.', 'subtype': 'stadium', 'subtype_name': 'Ekaterinburg Stadium', 'type': 'attraction'}, {'full_name': 'Екатеринбург, Центральный стадион', 'id': '70030076161404632', 'name': 'Центральный стадион', 'point': {'lat': 56.832083, 'lon': 60.573558}, 'subtype': 'place', 'type': 'adm_div'}], 'total': 5}}
{'meta': {'api_version': '3.0.868748', 'code': 200, 'issue_date': '20220810'}, 'result': {'items': [{'adm_div': [{'id': '70030076118166540', 'name': 'Казань городской округ', 'type': 'district_area'}], 'full_name': 'Казань', 'id': '2956110025720010', 'name': 'Казань', 'point': {'lat': 55.798875, 'lon': 49.130025}, 'subtype': 'city', 'type': 'adm_div'}, {'address_name': 'терминал 2', 'building_name': 'Казань, международный аэропорт им. Г.М. Тукая', 'full_name': 'Столбище, Казань, международный аэропорт им. Г.М. Тукая', 'id': '2956122910672463', 'name': 'Казань, международный аэропорт им. Г.М. Тукая', 'point': {'lat': 55.609811, 'lon': 49.293992}, 'purpose_name': 'Airport', 'type': 'building'}, {'address_name': '91', 'building_name': 'KazanMall, торговый центр', 'full_name': 'Казань, KazanMall, торговый центр', 'id': '70030076158215859', 'name': 'KazanMall, торговый центр', 'point': {'lat': 55.768752, 'lon': 49.148945}, 'purpose_name': 'Shopping center', 'type': 'building'}, {'address_name': '2', 'building_name': 'Казань, агропромышленный парк', 'full_name': 'Казань, Казань, агропромышленный парк', 'id': '2956122910685947', 'name': 'Казань, агропромышленный парк', 'point': {'lat': 55.794195, 'lon': 49.212931}, 'purpose_name': 'Administrative building', 'type': 'building'}, {'full_name': 'Казань, Казань Арена', 'id': '70030076161899418', 'name': 'Казань Арена', 'point': {'lat': 55.820943, 'lon': 49.160951}, 'subtype': 'stadium', 'subtype_name': 'Kazan Stadium', 'type': 'attraction'}, {'address_name': '33', 'building_name': 'Ж/д вокзал Казань-2', 'full_name': 'Казань, Ж/д вокзал Казань-2', 'id': '2956122910642796', 'name': 'Ж/д вокзал Казань-2', 'point': {'lat': 55.842559, 'lon': 49.081149}, 'purpose_name': 'Terminal', 'type': 'building'}, {'address_name': '1', 'building_name': 'Казань, международный аэропорт им. Г.М. Тукая', 'full_name': 'Столбище, Казань, международный аэропорт им. Г.М. Тукая', 'id': '2956122910672480', 'name': 'Казань, международный аэропорт им. Г.М. Тукая', 'point': {'lat': 55.608472, 'lon': 49.297394}, 'purpose_name': 'Airport', 'type': 'building'}, {'address_name': '1', 'building_name': 'Казань ЭКСПО, международный выставочный центр', 'full_name': 'Большие Кабаны, Казань ЭКСПО, международный выставочный центр', 'id': '70030076142593784', 'name': 'Казань ЭКСПО, международный выставочный центр', 'point': {'lat': 55.61107, 'lon': 49.301191}, 'purpose_name': 'Administrative building', 'type': 'building'}, {'address_name': '115а', 'building_name': 'Ак Барс Арена, стадион', 'full_name': 'Казань, Ак Барс Арена, стадион', 'id': '2956122910679819', 'name': 'Ак Барс Арена, стадион', 'point': {'lat': 55.820909, 'lon': 49.162437}, 'purpose_name': 'Sports facility', 'type': 'building'}, {'address_name': '43 / 1', 'building_name': 'Ibis Казань Центр, гостиница', 'full_name': 'Казань, Ibis Казань Центр, гостиница', 'id': '2956122910657809', 'name': 'Ibis Казань Центр, гостиница', 'point': {'lat': 55.788175, 'lon': 49.113955}, 'purpose_name': 'Hotel', 'type': 'building'}], 'total': 10}}
{'meta': {'api_version': '3.0.868748', 'code': 200, 'issue_date': '20220810'}, 'result': {'items': [{'adm_div': [{'id': '70030076118167406', 'name': 'Нижний Новгород городской округ', 'type': 'district_area'}], 'full_name': 'Нижний Новгород', 'id': '2674635049009413', 'name': 'Нижний Новгород', 'point': {'lat': 56.301157, 'lon': 43.928022}, 'subtype': 'city', 'type': 'adm_div'}, {'address_name': 'Бетанкура, 1а', 'adm_div': [{'id': '1', 'name': 'Россия', 'type': 'country'}, {'id': '1267655302447165', 'name': 'Нижегородская область', 'type': 'region'}, {'id': '70030076118167406', 'name': 'Нижний Новгород городской округ', 'type': 'district_area'}, {'city_alias': 'n_novgorod', 'flags': {'is_default': True, 'is_district_area_center': True, 'is_region_center': True}, 'id': '2674635049009413', 'is_default': True, 'name': 'Нижний Новгород', 'type': 'city'}, {'id': '70030076172637125', 'name': 'Канавинский район', 'type': 'district'}], 'building_name': 'Нижний Новгород, стадион', 'full_name': 'Нижний Новгород, Нижний Новгород, стадион', 'id': '2674647959948386', 'name': 'Нижний Новгород, стадион', 'point': {'lat': 56.337532, 'lon': 43.963482}, 'purpose_name': 'Спортивное сооружение', 'type': 'building'}, {'adm_div': [{'id': '1', 'name': 'Россия', 'type': 'country'}, {'id': '1267655302447165', 'name': 'Нижегородская область', 'type': 'region'}, {'id': '70030076118167406', 'name': 'Нижний Новгород городской округ', 'type': 'district_area'}, {'city_alias': 'n_novgorod', 'flags': {'is_default': True, 'is_district_area_center': True, 'is_region_center': True}, 'id': '2674635049009413', 'is_default': True, 'name': 'Нижний Новгород', 'type': 'city'}], 'full_name': 'Нижний Новгород, Стадион "Нижний Новгород"', 'id': '70030076144088452', 'name': 'Стадион "Нижний Новгород"', 'point': {'lat': 56.337046, 'lon': 43.963103}, 'subtype': 'place', 'type': 'adm_div'}, {'adm_div': [{'id': '1', 'name': 'Россия', 'type': 'country'}, {'id': '1267655302447165', 'name': 'Нижегородская область', 'type': 'region'}, {'id': '70030076118167406', 'name': 'Нижний Новгород городской округ', 'type': 'district_area'}, {'city_alias': 'n_novgorod', 'flags': {'is_default': True, 'is_district_area_center': True, 'is_region_center': True}, 'id': '2674635049009413', 'is_default': True, 'name': 'Нижний Новгород', 'type': 'city'}], 'full_name': 'Нижний Новгород, Канатная дорога', 'id': '2674699473518807', 'name': 'Канатная дорога', 'point': {'lat': 56.34128, 'lon': 44.051835}, 'subtype': 'place', 'type': 'adm_div'}, {'adm_div': [{'id': '1', 'name': 'Россия', 'type': 'country'}, {'id': '1267655302447165', 'name': 'Нижегородская область', 'type': 'region'}, {'id': '70030076118167406', 'name': 'Нижний Новгород городской округ', 'type': 'district_area'}, {'city_alias': 'n_novgorod', 'flags': {'is_default': True, 'is_district_area_center': True, 'is_region_center': True}, 'id': '2674635049009413', 'is_default': True, 'name': 'Нижний Новгород', 'type': 'city'}, {'id': '70030076172637125', 'name': 'Канавинский район', 'type': 'district'}], 'full_name': 'Нижний Новгород, Стадион Нижний Новгород', 'id': '70030076161900135', 'name': 'Стадион Нижний Новгород', 'point': {'lat': 56.337494, 'lon': 43.963358}, 'subtype': 'stadium', 'subtype_name': 'Стадион Нижний Новгород', 'type': 'attraction'}, {'address_name': 'Стригино, Аэропорт', 'adm_div': [{'id': '1', 'name': 'Россия', 'type': 'country'}, {'id': '1267655302447165', 'name': 'Нижегородская область', 'type': 'region'}, {'id': '70030076118167406', 'name': 'Нижний Новгород городской округ', 'type': 'district_area'}, {'city_alias': 'n_novgorod', 'flags': {'is_default': True, 'is_district_area_center': True, 'is_region_center': True}, 'id': '2674635049009413', 'is_default': True, 'name': 'Нижний Новгород', 'type': 'city'}, {'id': '2674622192363174', 'name': 'Автозаводский район', 'type': 'district'}], 'building_name': 'Чкалов, международный аэропорт, АО Международный аэропорт Нижний Новгород', 'full_name': 'Нижний Новгород, Чкалов, международный аэропорт, АО Международный аэропорт Нижний Новгород', 'id': '2674647953846912', 'name': 'Чкалов, международный аэропорт, АО Международный аэропорт Нижний Новгород', 'point': {'lat': 56.219639, 'lon': 43.790503}, 'purpose_name': 'Аэропорт', 'type': 'building'}, {'address_name': 'площадь Революции, 2а', 'adm_div': [{'id': '1', 'name': 'Россия', 'type': 'country'}, {'id': '1267655302447165', 'name': 'Нижегородская область', 'type': 'region'}, {'id': '70030076118167406', 'name': 'Нижний Новгород городской округ', 'type': 'district_area'}, {'city_alias': 'n_novgorod', 'flags': {'is_default': True, 'is_district_area_center': True, 'is_region_center': True}, 'id': '2674635049009413', 'is_default': True, 'name': 'Нижний Новгород', 'type': 'city'}, {'id': '70030076172637125', 'name': 'Канавинский район', 'type': 'district'}], 'building_name': 'Московский, железнодорожный вокзал', 'full_name': 'Нижний Новгород, Московский, железнодорожный вокзал', 'id': '2674647933941899', 'name': 'Московский, железнодорожный вокзал', 'point': {'lat': 56.321925, 'lon': 43.946165}, 'purpose_name': 'Вокзал', 'type': 'building'}, {'address_name': 'Заломова, 2', 'adm_div': [{'id': '1', 'name': 'Россия', 'type': 'country'}, {'id': '1267655302447165', 'name': 'Нижегородская область', 'type': 'region'}, {'id': '70030076118167406', 'name': 'Нижний Новгород городской округ', 'type': 'district_area'}, {'city_alias': 'n_novgorod', 'flags': {'is_default': True, 'is_district_area_center': True, 'is_region_center': True}, 'id': '2674635049009413', 'is_default': True, 'name': 'Нижний Новгород', 'type': 'city'}, {'id': '2674622164107515', 'name': 'Нижегородский район', 'type': 'district'}], 'building_name': 'Аzimut Отель Нижний Новгород', 'full_name': 'Нижний Новгород, Аzimut Отель Нижний Новгород', 'id': '2674647933939808', 'name': 'Аzimut Отель Нижний Новгород', 'point': {'lat': 56.323506, 'lon': 43.981008}, 'purpose_name': 'Гостиница', 'type': 'building'}, {'adm_div': [{'id': '1267655302447165', 'name': 'Nizhny Novgorod region', 'type': 'region'}], 'full_name': 'Нижний Новгород городской округ', 'id': '70030076118167406', 'name': 'Нижний Новгород городской округ', 'point': {'lat': 56.286851, 'lon': 43.890977}, 'subtype': 'district_area', 'type': 'adm_div'}], 'total': 9}}
{'meta': {'api_version': '3.0.868748', 'code': 200, 'issue_date': '20220810'}, 'result': {'items': [{'adm_div': [{'id': '70030076118168023', 'name': 'Челябинский городской округ', 'type': 'district_area'}], 'full_name': 'Челябинск', 'id': '2111685095587875', 'name': 'Челябинск', 'point': {'lat': 55.157389, 'lon': 61.402709}, 'subtype': 'city', 'type': 'adm_div'}, {'address_name': 'терминал международных воздушных линий', 'building_name': 'Челябинск, международный аэропорт им. И.В. Курчатова', 'full_name': 'Челябинск, Челябинск, международный аэропорт им. И.В. Курчатова', 'id': '2111697980502480', 'name': 'Челябинск, международный аэропорт им. И.В. Курчатова', 'point': {'lat': 55.297871, 'lon': 61.512229}, 'purpose_name': 'Airport', 'type': 'building'}, {'address_name': '159', 'building_name': 'Челябинск-Сити, бизнес-центр', 'full_name': 'Челябинск, Челябинск-Сити, бизнес-центр', 'id': '2111697980491812', 'name': 'Челябинск-Сити, бизнес-центр', 'point': {'lat': 55.164639, 'lon': 61.401223}, 'purpose_name': 'Business center', 'type': 'building'}, {'address_name': 'терминал внутренних воздушных линий', 'building_name': 'Челябинск, международный аэропорт им. И.В. Курчатова', 'full_name': 'Челябинск, Челябинск, международный аэропорт им. И.В. Курчатова', 'id': '70030076168120139', 'name': 'Челябинск, международный аэропорт им. И.В. Курчатова', 'point': {'lat': 55.298128, 'lon': 61.509325}, 'purpose_name': 'Airport', 'type': 'building'}, {'full_name': 'Chelyabinsk region', 'id': '1267655302447186', 'name': 'Chelyabinsk region', 'point': {'lat': 55.33681, 'lon': 60.824845}, 'subtype': 'region', 'type': 'adm_div'}, {'address_name': '7', 'building_name': 'Пригородный железнодорожный вокзал г. Челябинск', 'full_name': 'Челябинск, Пригородный железнодорожный вокзал г. Челябинск', 'id': '2111697980528097', 'name': 'Пригородный железнодорожный вокзал г. Челябинск', 'point': {'lat': 55.138203, 'lon': 61.414117}, 'purpose_name': 'Terminal', 'type': 'building'}], 'total': 6}}
{'meta': {'api_version': '3.0.868748', 'code': 200, 'issue_date': '20220810'}, 'result': {'items': [{'adm_div': [{'id': '70030076118167706', 'name': 'Самара городской округ', 'type': 'district_area'}], 'full_name': 'Самара', 'id': '2533897560653928', 'name': 'Самара', 'point': {'lat': 53.20698, 'lon': 50.180997}, 'subtype': 'city', 'type': 'adm_div'}, {'address_name': '1', 'building_name': 'Самара, железнодорожный вокзал', 'full_name': 'Самара, Самара, железнодорожный вокзал', 'id': '2533910445582586', 'name': 'Самара, железнодорожный вокзал', 'point': {'lat': 53.1852, 'lon': 50.121176}, 'purpose_name': 'Terminal', 'type': 'building'}, {'address_name': '21', 'building_name': 'Самара космическая, музейно-выставочный комплекс', 'full_name': 'Самара, Самара космическая, музейно-выставочный комплекс', 'id': '2533910445579301', 'name': 'Самара космическая, музейно-выставочный комплекс', 'point': {'lat': 53.212657, 'lon': 50.145231}, 'purpose_name': 'Museum', 'type': 'building'}, {'full_name': 'Самара, Стадион "Самара Арена"', 'id': '2533962013109481', 'name': 'Стадион "Самара Арена"', 'point': {'lat': 53.278015, 'lon': 50.237278}, 'subtype': 'place', 'type': 'adm_div'}, {'full_name': 'Самара, Самара Арена', 'id': '70030076161900568', 'name': 'Самара Арена', 'point': {'lat': 53.278038, 'lon': 50.237439}, 'subtype': 'stadium', 'subtype_name': 'Samara Stadium', 'type': 'attraction'}, {'address_name': '57', 'building_name': 'Солидарность Арена, стадион', 'full_name': 'Самара, Солидарность Арена, стадион', 'id': '2533910471640379', 'name': 'Солидарность Арена, стадион', 'point': {'lat': 53.277929, 'lon': 50.238873}, 'purpose_name': 'Sports facility', 'type': 'building'}, {'address_name': '207', 'building_name': 'Центральный автовокзал г. Самара', 'full_name': 'Самара, Центральный автовокзал г. Самара', 'id': '2533910445563854', 'name': 'Центральный автовокзал г. Самара', 'point': {'lat': 53.216679, 'lon': 50.189389}, 'purpose_name': 'Terminal', 'type': 'building'}, {'address_name': '201', 'building_name': 'СамаРА, гостиница', 'full_name': 'Самара, СамаРА, гостиница', 'id': '2533910445569826', 'name': 'СамаРА, гостиница', 'point': {'lat': 53.199151, 'lon': 50.103005}, 'purpose_name': 'Administrative building', 'type': 'building'}, {'address_name': '162в', 'building_name': 'Ренессанс Самара, гостиница', 'full_name': 'Самара, Ренессанс Самара, гостиница', 'id': '2533910445574727', 'name': 'Ренессанс Самара, гостиница', 'point': {'lat': 53.231387, 'lon': 50.178581}, 'purpose_name': 'Hotel', 'type': 'building'}, {'address_name': '160д', 'building_name': 'Ибис Самара, гостиница', 'full_name': 'Самара, Ибис Самара, гостиница', 'id': '2533910445665705', 'name': 'Ибис Самара, гостиница', 'point': {'lat': 53.230643, 'lon': 50.178202}, 'purpose_name': 'Hotel', 'type': 'building'}], 'total': 10}}
{'meta': {'api_version': '3.0.868748', 'code': 200, 'issue_date': '20220810'}, 'result': {'items': [{'adm_div': [{'id': '70030076118166295', 'name': 'Уфа городской округ', 'type': 'district_area'}], 'full_name': 'Уфа', 'id': '2393160072298497', 'name': 'Уфа', 'point': {'lat': 54.773241, 'lon': 56.023289}, 'subtype': 'city', 'type': 'adm_div'}, {'address_name': '31', 'building_name': 'Уфа, универмаг', 'full_name': 'Уфа, Уфа, универмаг', 'id': '2393172957204971', 'name': 'Уфа, универмаг', 'point': {'lat': 54.75062, 'lon': 55.996653}, 'purpose_name': 'Shopping center', 'type': 'building'}, {'address_name': 'Аэропорт, 56', 'adm_div': [{'id': '1', 'name': 'Россия', 'type': 'country'}, {'id': '1267655302447107', 'name': 'Республика Башкортостан', 'type': 'region'}, {'id': '70030076118166295', 'name': 'Уфа городской округ', 'type': 'district_area'}, {'city_alias': 'ufa', 'flags': {'is_default': True, 'is_district_area_center': True, 'is_region_center': True}, 'id': '2393160072298497', 'is_default': True, 'name': 'Уфа', 'type': 'city'}], 'building_name': 'Уфа, международный аэропорт им. М. Карима', 'full_name': 'Уфа, Уфа, международный аэропорт им. М. Карима', 'id': '2393172957228451', 'name': 'Уфа, международный аэропорт им. М. Карима', 'point': {'lat': 54.564732, 'lon': 55.884628}, 'purpose_name': 'Аэропорт', 'type': 'building'}, {'address_name': '3', 'building_name': 'Уфа, железнодорожный вокзал', 'full_name': 'Уфа, Уфа, железнодорожный вокзал', 'id': '2393172957216068', 'name': 'Уфа, железнодорожный вокзал', 'point': {'lat': 54.748263, 'lon': 55.948097}, 'purpose_name': 'Terminal', 'type': 'building'}, {'address_name': '114', 'building_name': 'Уфа-Арена, ледовый дворец спорта', 'full_name': 'Уфа, Уфа-Арена, ледовый дворец спорта', 'id': '2393172957223907', 'name': 'Уфа-Арена, ледовый дворец спорта', 'point': {'lat': 54.739533, 'lon': 55.957251}, 'purpose_name': 'Sports facility', 'type': 'building'}], 'total': 5}}
{'meta': {'api_version': '3.0.868748', 'code': 200, 'issue_date': '20220810'}, 'result': {'items': [{'adm_div': [{'id': '70030076118167629', 'name': 'Ростов-на-Дону городской округ', 'type': 'district_area'}], 'full_name': 'Ростов-на-Дону', 'id': '3378322490785844', 'name': 'Ростов-на-Дону', 'point': {'lat': 47.222099, 'lon': 39.691771}, 'subtype': 'city', 'type': 'adm_div'}, {'address_name': 'проспект Сиверса, 3', 'adm_div': [{'id': '1', 'name': 'Россия', 'type': 'country'}, {'id': '1267655302447173', 'name': 'Ростовская область', 'type': 'region'}, {'id': '70030076118167629', 'name': 'Ростов-на-Дону городской округ', 'type': 'district_area'}, {'city_alias': 'rostov', 'flags': {'is_default': True, 'is_district_area_center': True, 'is_region_center': True}, 'id': '3378322490785844', 'is_default': True, 'name': 'Ростов-на-Дону', 'type': 'city'}, {'id': '3378309605883905', 'name': 'Ленинский район', 'type': 'district'}], 'building_name': 'Ростов-на-Дону, автовокзал', 'full_name': 'Ростов-на-Дону, Ростов-на-Дону, автовокзал', 'id': '3378335375701984', 'name': 'Ростов-на-Дону, автовокзал', 'point': {'lat': 47.220597, 'lon': 39.693483}, 'purpose_name': 'Вокзал', 'type': 'building'}, {'address_name': 'Привокзальная площадь, 2/1', 'adm_div': [{'id': '1', 'name': 'Россия', 'type': 'country'}, {'id': '1267655302447173', 'name': 'Ростовская область', 'type': 'region'}, {'id': '70030076118167629', 'name': 'Ростов-на-Дону городской округ', 'type': 'district_area'}, {'city_alias': 'rostov', 'flags': {'is_default': True, 'is_district_area_center': True, 'is_region_center': True}, 'id': '3378322490785844', 'is_default': True, 'name': 'Ростов-на-Дону', 'type': 'city'}, {'id': '3378309605883909', 'name': 'Железнодорожный район', 'type': 'district'}], 'building_name': 'Пригородный железнодорожный вокзал, г. Ростов-на-Дону', 'full_name': 'Ростов-на-Дону, Пригородный железнодорожный вокзал, г. Ростов-на-Дону', 'id': '3378335375702224', 'name': 'Пригородный железнодорожный вокзал, г. Ростов-на-Дону', 'point': {'lat': 47.217552, 'lon': 39.694589}, 'purpose_name': 'Вокзал', 'type': 'building'}, {'adm_div': [{'id': '1', 'name': 'Россия', 'type': 'country'}, {'id': '1267655302447173', 'name': 'Ростовская область', 'type': 'region'}, {'id': '70030076118167629', 'name': 'Ростов-на-Дону городской округ', 'type': 'district_area'}, {'city_alias': 'rostov', 'flags': {'is_default': True, 'is_district_area_center': True, 'is_region_center': True}, 'id': '3378322490785844', 'is_default': True, 'name': 'Ростов-на-Дону', 'type': 'city'}, {'id': '3378309605883906', 'name': 'Кировский район', 'type': 'district'}], 'full_name': 'Ростов-на-Дону, Ростов Арена', 'id': '70030076161900426', 'name': 'Ростов Арена', 'point': {'lat': 47.209393, 'lon': 39.737866}, 'subtype': 'stadium', 'subtype_name': 'Стадион Ростов-на-Дону', 'type': 'attraction'}, {'adm_div': [{'id': '1267655302447173', 'name': 'Rostov region', 'type': 'region'}], 'full_name': 'Ростов-на-Дону городской округ', 'id': '70030076118167629', 'name': 'Ростов-на-Дону городской округ', 'point': {'lat': 47.239945, 'lon': 39.727113}, 'subtype': 'district_area', 'type': 'adm_div'}, {'address_name': 'Большая Садовая, 47 / переулок Семашко, 49', 'adm_div': [{'id': '1', 'name': 'Россия', 'type': 'country'}, {'id': '1267655302447173', 'name': 'Ростовская область', 'type': 'region'}, {'id': '70030076118167629', 'name': 'Ростов-на-Дону городской округ', 'type': 'district_area'}, {'city_alias': 'rostov', 'flags': {'is_default': True, 'is_district_area_center': True, 'is_region_center': True}, 'id': '3378322490785844', 'is_default': True, 'name': 'Ростов-на-Дону', 'type': 'city'}, {'id': '3378309605883905', 'name': 'Ленинский район', 'type': 'district'}], 'building_name': 'Администрация г. Ростов-на-Дону', 'full_name': 'Ростов-на-Дону, Администрация г. Ростов-на-Дону', 'id': '3378335375703295', 'name': 'Администрация г. Ростов-на-Дону', 'point': {'lat': 47.221442, 'lon': 39.712573}, 'purpose_name': 'Административное здание', 'type': 'building'}], 'total': 6}}
{'meta': {'api_version': '3.0.868748', 'code': 200, 'issue_date': '20220810'}, 'result': {'items': [{'adm_div': [{'id': '70030076118167454', 'name': 'Омск городской округ', 'type': 'district_area'}], 'full_name': 'Омск', 'id': '282097746968728', 'name': 'Омск', 'point': {'lat': 54.982328, 'lon': 73.380907}, 'subtype': 'city', 'type': 'adm_div'}, {'address_name': '35', 'building_name': 'МЕГА Омск, торговый центр', 'full_name': 'Омск, МЕГА Омск, торговый центр', 'id': '282110631948983', 'name': 'МЕГА Омск, торговый центр', 'point': {'lat': 54.971686, 'lon': 73.284947}, 'purpose_name': 'Shopping center', 'type': 'building'}, {'address_name': '28', 'building_name': 'Международный аэропорт им. Д.М. Карбышева', 'full_name': 'Омск, Международный аэропорт им. Д.М. Карбышева', 'id': '282110632001763', 'name': 'Международный аэропорт им. Д.М. Карбышева', 'point': {'lat': 54.957902, 'lon': 73.316559}, 'purpose_name': 'Airport', 'type': 'building'}], 'total': 3}}
{'meta': {'api_version': '3.0.868748', 'code': 200, 'issue_date': '20220810'}, 'result': {'items': [{'adm_div': [{'id': '70030076118166747', 'name': 'Красноярск городской округ', 'type': 'district_area'}], 'full_name': 'Красноярск', 'id': '985785188745271', 'name': 'Красноярск', 'point': {'lat': 56.005498, 'lon': 92.830745}, 'subtype': 'city', 'type': 'adm_div'}, {'address_name': 'Урицкого, 94', 'adm_div': [{'id': '1', 'name': 'Россия', 'type': 'country'}, {'id': '1267655302447130', 'name': 'Красноярский край', 'type': 'region'}, {'id': '70030076118166747', 'name': 'Красноярск городской округ', 'type': 'district_area'}, {'city_alias': 'krasnoyarsk', 'flags': {'is_default': True, 'is_district_area_center': True, 'is_region_center': True}, 'id': '985785188745271', 'is_default': True, 'name': 'Красноярск', 'type': 'city'}, {'id': '985772303843329', 'name': 'Центральный район', 'type': 'district'}], 'building_name': 'Красноярск, гостиница', 'full_name': 'Красноярск, Красноярск, гостиница', 'id': '985798073649407', 'name': 'Красноярск, гостиница', 'point': {'lat': 56.009464, 'lon': 92.870782}, 'purpose_name': 'Гостиница', 'type': 'building'}, {'address_name': '1/1', 'building_name': 'Красноярск, международный аэропорт им. Д.А. Хворостовского', 'full_name': 'Емельяново, Красноярск, международный аэропорт им. Д.А. Хворостовского', 'id': '985798073686709', 'name': 'Красноярск, международный аэропорт им. Д.А. Хворостовского', 'point': {'lat': 56.180699, 'lon': 92.483259}, 'purpose_name': 'Airport', 'type': 'building'}, {'address_name': '22', 'building_name': 'Междугородный автовокзал', 'full_name': 'Красноярск, Междугородный автовокзал', 'id': '985798073653729', 'name': 'Междугородный автовокзал', 'point': {'lat': 56.032921, 'lon': 92.90591}, 'purpose_name': 'Terminal', 'type': 'building'}, {'address_name': '1', 'building_name': 'Красноярск, железнодорожный вокзал', 'full_name': 'Красноярск, Красноярск, железнодорожный вокзал', 'id': '985798073653745', 'name': 'Красноярск, железнодорожный вокзал', 'point': {'lat': 56.005686, 'lon': 92.829898}, 'purpose_name': 'Terminal', 'type': 'building'}, {'address_name': 'Воронова, 14в', 'adm_div': [{'id': '1', 'name': 'Россия', 'type': 'country'}, {'id': '1267655302447130', 'name': 'Красноярский край', 'type': 'region'}, {'id': '70030076118166747', 'name': 'Красноярск городской округ', 'type': 'district_area'}, {'city_alias': 'krasnoyarsk', 'flags': {'is_default': True, 'is_district_area_center': True, 'is_region_center': True}, 'id': '985785188745271', 'is_default': True, 'name': 'Красноярск', 'type': 'city'}, {'id': '985772303843333', 'name': 'Советский район', 'type': 'district'}, {'id': '985823843450889', 'name': 'Зелёная Роща', 'type': 'living_area'}], 'building_name': 'Красноярск, спортивный комплекс', 'full_name': 'Красноярск, Красноярск, спортивный комплекс', 'id': '985798073649949', 'name': 'Красноярск, спортивный комплекс', 'point': {'lat': 56.061302, 'lon': 92.954482}, 'purpose_name': 'Спортивное сооружение', 'type': 'building'}, {'full_name': 'Аэропорт Красноярск', 'id': '985849613254970', 'name': 'Аэропорт Красноярск', 'point': {'lat': 56.181303, 'lon': 92.473694}, 'subtype': 'place', 'type': 'adm_div'}, {'address_name': 'Аэропорт «Красноярск»', 'building_name': 'Красноярск, международный аэропорт им. Д.А. Хворостовского', 'full_name': 'Красноярск, Красноярск, международный аэропорт им. Д.А. Хворостовского', 'id': '985798115848445', 'name': 'Красноярск, международный аэропорт им. Д.А. Хворостовского', 'point': {'lat': 56.180435, 'lon': 92.486188}, 'purpose_name': 'Airport', 'type': 'building'}, {'full_name': 'Krasnoyarsk krai', 'id': '1267655302447130', 'name': 'Krasnoyarsk krai', 'point': {'lat': 68.084127, 'lon': 94.634519}, 'subtype': 'region', 'type': 'adm_div'}], 'total': 9}}
{'meta': {'api_version': '3.0.868748', 'code': 200, 'issue_date': '20220810'}, 'result': {'items': [{'adm_div': [{'id': '70030076118167065', 'name': 'Воронеж городской округ', 'type': 'district_area'}], 'full_name': 'Воронеж', 'id': '4363484909273106', 'name': 'Воронеж', 'point': {'lat': 51.696954, 'lon': 39.1873}, 'subtype': 'city', 'type': 'adm_div'}, {'address_name': '1', 'building_name': 'Воронеж-1, железнодорожный вокзал', 'full_name': 'Воронеж, Воронеж-1, железнодорожный вокзал', 'id': '4363497794198458', 'name': 'Воронеж-1, железнодорожный вокзал', 'point': {'lat': 51.679696, 'lon': 39.206225}, 'purpose_name': 'Terminal', 'type': 'building'}, {'address_name': '48к', 'building_name': 'Воронеж-Южный, железнодорожный вокзал', 'full_name': 'Воронеж, Воронеж-Южный, железнодорожный вокзал', 'id': '70030076143245199', 'name': 'Воронеж-Южный, железнодорожный вокзал', 'point': {'lat': 51.641045, 'lon': 39.258824}, 'purpose_name': 'Terminal', 'type': 'building'}, {'address_name': '1', 'building_name': 'Воронеж, международный аэропорт им. Петра I', 'full_name': 'Воронеж, Воронеж, международный аэропорт им. Петра I', 'id': '4363497794210537', 'name': 'Воронеж, международный аэропорт им. Петра I', 'point': {'lat': 51.812668, 'lon': 39.225469}, 'purpose_name': 'Airport', 'type': 'building'}, {'adm_div': [{'id': '1', 'name': 'Россия', 'type': 'country'}, {'id': '1267655302447126', 'name': 'Алтайский край', 'type': 'region'}, {'id': '563963565703257', 'name': 'Змеиногорский район', 'type': 'district_area'}], 'full_name': 'Воронеж', 'id': '70030076127773388', 'name': 'Воронеж', 'point': {'lat': 51.195447, 'lon': 82.009569}, 'subtype': 'settlement', 'subtype_specification': 'Посёлок', 'type': 'adm_div'}], 'total': 5}}
{'meta': {'api_version': '3.0.868748', 'code': 200, 'issue_date': '20220810'}, 'result': {'items': [{'adm_div': [{'id': '70030076118167577', 'name': 'Пермь городской округ', 'type': 'district_area'}], 'full_name': 'Пермь', 'id': '2252422583943339', 'name': 'Пермь', 'point': {'lat': 58.007079, 'lon': 56.248179}, 'subtype': 'city', 'type': 'adm_div'}, {'address_name': '89', 'building_name': 'Пермь-2, железнодорожный вокзал', 'full_name': 'Пермь, Пермь-2, железнодорожный вокзал', 'id': '2252435468863258', 'name': 'Пермь-2, железнодорожный вокзал', 'point': {'lat': 58.0048, 'lon': 56.180227}, 'purpose_name': 'Terminal', 'type': 'building'}, {'address_name': '45 / 21', 'building_name': 'ЦУМ', 'full_name': 'Пермь, ЦУМ', 'id': '2252435468861248', 'name': 'ЦУМ', 'point': {'lat': 58.011523, 'lon': 56.237379}, 'purpose_name': 'Shopping center', 'type': 'building'}], 'total': 3}}
{'meta': {'api_version': '3.0.868748', 'code': 200, 'issue_date': '20220810'}, 'result': {'items': [{'adm_div': [{'id': '70030076118166999', 'name': 'Волгоград городской округ', 'type': 'district_area'}], 'full_name': 'Волгоград', 'id': '4644959885983809', 'name': 'Волгоград', 'point': {'lat': 48.653067, 'lon': 44.428131}, 'subtype': 'city', 'type': 'adm_div'}, {'address_name': '11', 'building_name': 'Волгоград, автовокзал', 'full_name': 'Волгоград, Волгоград, автовокзал', 'id': '4644972770887304', 'name': 'Волгоград, автовокзал', 'point': {'lat': 48.715795, 'lon': 44.516711}, 'purpose_name': 'Terminal', 'type': 'building'}, {'address_name': '1', 'building_name': 'Волгоград-1, железнодорожный вокзал', 'full_name': 'Волгоград, Волгоград-1, железнодорожный вокзал', 'id': '4644972770889613', 'name': 'Волгоград-1, железнодорожный вокзал', 'point': {'lat': 48.712573, 'lon': 44.513504}, 'purpose_name': 'Terminal', 'type': 'building'}, {'address_name': 'терминал C', 'building_name': 'Волгоград, международный аэропорт', 'full_name': 'Волгоград, Волгоград, международный аэропорт', 'id': '4644972799943976', 'name': 'Волгоград, международный аэропорт', 'point': {'lat': 48.791312, 'lon': 44.353415}, 'purpose_name': 'Airport', 'type': 'building'}, {'address_name': '12', 'building_name': 'Волгоград, гостиница', 'full_name': 'Волгоград, Волгоград, гостиница', 'id': '4644972770890700', 'name': 'Волгоград, гостиница', 'point': {'lat': 48.708008, 'lon': 44.514152}, 'purpose_name': 'Hotel', 'type': 'building'}, {'address_name': 'терминал С2', 'building_name': 'Волгоград, международный аэропорт', 'full_name': 'Волгоград, Волгоград, международный аэропорт', 'id': '70030076142746221', 'name': 'Волгоград, международный аэропорт', 'point': {'lat': 48.791601, 'lon': 44.354539}, 'purpose_name': 'Airport', 'type': 'building'}], 'total': 6}}
{'meta': {'api_version': '3.0.868748', 'code': 200, 'issue_date': '20220810'}, 'result': {'items': [{'adm_div': [{'id': '70030076118166727', 'name': 'Краснодар городской округ', 'type': 'district_area'}], 'full_name': 'Краснодар', 'id': '3237585002430511', 'name': 'Краснодар', 'point': {'lat': 45.024359, 'lon': 38.971526}, 'subtype': 'city', 'type': 'adm_div'}, {'address_name': '5', 'building_name': 'Краснодар-1, автовокзал', 'full_name': 'Краснодар, Краснодар-1, автовокзал', 'id': '3237597887347769', 'name': 'Краснодар-1, автовокзал', 'point': {'lat': 45.019379, 'lon': 38.987972}, 'purpose_name': 'Terminal', 'type': 'building'}, {'address_name': '1', 'building_name': 'Краснодар 1, железнодорожный вокзал', 'full_name': 'Краснодар, Краснодар 1, железнодорожный вокзал', 'id': '3237597887347773', 'name': 'Краснодар 1, железнодорожный вокзал', 'point': {'lat': 45.018314, 'lon': 38.987954}, 'purpose_name': 'Terminal', 'type': 'building'}, {'address_name': '1', 'building_name': 'Краснодар 2, железнодорожный вокзал', 'full_name': 'Краснодар, Краснодар 2, железнодорожный вокзал', 'id': '3237597887351891', 'name': 'Краснодар 2, железнодорожный вокзал', 'point': {'lat': 45.054277, 'lon': 38.986586}, 'purpose_name': 'Terminal', 'type': 'building'}, {'address_name': '313', 'building_name': 'Галерея Краснодар, торгово-развлекательный центр', 'full_name': 'Краснодар, Галерея Краснодар, торгово-развлекательный центр', 'id': '3237597887375125', 'name': 'Галерея Краснодар, торгово-развлекательный центр', 'point': {'lat': 45.039699, 'lon': 38.974295}, 'purpose_name': 'Shopping and entertainment complex', 'type': 'building'}, {'full_name': 'Краснодар, Городской парк "Краснодар"', 'id': '70030076148653658', 'name': 'Городской парк "Краснодар"', 'point': {'lat': 45.042156, 'lon': 39.033381}, 'subtype': 'place', 'type': 'adm_div'}, {'address_name': '1', 'building_name': 'ФК Краснодар, стадион', 'full_name': 'Краснодар, ФК Краснодар, стадион', 'id': '3237597887458269', 'name': 'ФК Краснодар, стадион', 'point': {'lat': 45.045206, 'lon': 39.028728}, 'purpose_name': 'Sports facility', 'type': 'building'}, {'full_name': 'Краснодар, Городской парк "Краснодар"', 'id': '70030076297558242', 'name': 'Городской парк "Краснодар"', 'point': {'lat': 45.041026, 'lon': 39.031735}, 'subtype': 'park', 'subtype_name': 'Park', 'type': 'attraction'}, {'full_name': 'Krasnodar krai', 'id': '1267655302447129', 'name': 'Krasnodar krai', 'point': {'lat': 45.786724, 'lon': 38.162613}, 'subtype': 'region', 'type': 'adm_div'}, {'full_name': 'Краснодар, Краснодар-2 автостанция', 'id': '3237658016874741', 'name': 'Краснодар-2 автостанция', 'point': {'lat': 45.054517, 'lon': 38.986135}, 'subtype': 'autostation', 'subtype_name': 'Bus station', 'type': 'attraction'}], 'total': 10}}
{'meta': {'api_version': '3.0.868748', 'code': 200, 'issue_date': '20220810'}, 'result': {'items': [{'adm_div': [{'id': '70030076118167979', 'name': 'Тюмень городской округ', 'type': 'district_area'}], 'full_name': 'Тюмень', 'id': '1830210118877480', 'name': 'Тюмень', 'point': {'lat': 57.199953, 'lon': 65.533853}, 'subtype': 'city', 'type': 'adm_div'}, {'address_name': '9', 'building_name': 'Тюмень, автовокзал', 'full_name': 'Тюмень, Тюмень, автовокзал', 'id': '1830223003791540', 'name': 'Тюмень, автовокзал', 'point': {'lat': 57.128508, 'lon': 65.595645}, 'purpose_name': 'Terminal', 'type': 'building'}, {'address_name': '60', 'building_name': 'Тюмень Сити Молл, торгово-развлекательный центр', 'full_name': 'Тюмень, Тюмень Сити Молл, торгово-развлекательный центр', 'id': '1830223003897706', 'name': 'Тюмень Сити Молл, торгово-развлекательный центр', 'point': {'lat': 57.175741, 'lon': 65.656299}, 'purpose_name': 'Shopping and entertainment complex', 'type': 'building'}, {'address_name': '22', 'building_name': 'Тюмень, железнодорожный вокзал', 'full_name': 'Тюмень, Тюмень, железнодорожный вокзал', 'id': '1830223003785448', 'name': 'Тюмень, железнодорожный вокзал', 'point': {'lat': 57.145889, 'lon': 65.52299}, 'purpose_name': 'Terminal', 'type': 'building'}, {'adm_div': [{'id': '1', 'name': 'Россия', 'type': 'country'}, {'id': '1267655302447184', 'name': 'Тюменская область', 'type': 'region'}, {'id': '70030076118167979', 'name': 'Тюмень городской округ', 'type': 'district_area'}, {'city_alias': 'tyumen', 'flags': {'is_default': True, 'is_district_area_center': True, 'is_region_center': True}, 'id': '1830210118877480', 'is_default': True, 'name': 'Тюмень', 'type': 'city'}], 'full_name': 'Тюмень', 'id': '70030076205475670', 'name': 'Тюмень', 'point': {'lat': 57.169751, 'lon': 65.42903}, 'type': 'street'}, {'address_name': '46', 'building_name': 'DoubleTree by Hilton Tyumen', 'full_name': 'Тюмень, DoubleTree by Hilton Tyumen', 'id': '1830223003789293', 'name': 'DoubleTree by Hilton Tyumen', 'point': {'lat': 57.153625, 'lon': 65.547509}, 'purpose_name': 'Hotel', 'type': 'building'}], 'total': 6}}
{'meta': {'api_version': '3.0.868748', 'code': 200, 'issue_date': '20220810'}, 'result': {'items': [{'adm_div': [{'id': '70030076118167736', 'name': 'Саратов городской округ', 'type': 'district_area'}], 'full_name': 'Саратов', 'id': '6052334769537063', 'name': 'Саратов', 'point': {'lat': 51.533296, 'lon': 46.034329}, 'subtype': 'city', 'type': 'adm_div'}, {'address_name': '1', 'building_name': 'Саратов, железнодорожный вокзал', 'full_name': 'Саратов, Саратов, железнодорожный вокзал', 'id': '6052347654452897', 'name': 'Саратов, железнодорожный вокзал', 'point': {'lat': 51.54149, 'lon': 45.998462}, 'purpose_name': 'Terminal', 'type': 'building'}], 'total': 2}}
{'meta': {'api_version': '3.0.868748', 'code': 200, 'issue_date': '20220810'}, 'result': {'items': [{'adm_div': [{'id': '3097238405597865', 'name': 'Тольятти городской округ', 'type': 'district_area'}], 'full_name': 'Тольятти', 'id': '3096847514075285', 'name': 'Тольятти', 'point': {'lat': 53.530074, 'lon': 49.370176}, 'subtype': 'city', 'type': 'adm_div'}, {'address_name': '38', 'building_name': 'Тольятти, железнодорожный вокзал', 'full_name': 'Тольятти, Тольятти, железнодорожный вокзал', 'id': '3096860399018359', 'name': 'Тольятти, железнодорожный вокзал', 'point': {'lat': 53.565674, 'lon': 49.294949}, 'purpose_name': 'Terminal', 'type': 'building'}], 'total': 2}}
{'meta': {'api_version': '3.0.868748', 'code': 200, 'issue_date': '20220810'}, 'result': {'items': [{'adm_div': [{'id': '70030076118166594', 'name': 'Ижевск городской округ', 'type': 'district_area'}], 'full_name': 'Ижевск', 'id': '5770859792826456', 'name': 'Ижевск', 'point': {'lat': 56.847944, 'lon': 53.228653}, 'subtype': 'city', 'type': 'adm_div'}, {'address_name': '16', 'building_name': 'Ижевск, железнодорожный вокзал', 'full_name': 'Ижевск, Ижевск, железнодорожный вокзал', 'id': '5770872677746667', 'name': 'Ижевск, железнодорожный вокзал', 'point': {'lat': 56.802121, 'lon': 53.189398}, 'purpose_name': 'Terminal', 'type': 'building'}, {'full_name': 'Ижевск, Аэропорт "Ижевск"', 'id': '5770924217336280', 'name': 'Аэропорт "Ижевск"', 'point': {'lat': 56.831102, 'lon': 53.450741}, 'subtype': 'place', 'type': 'adm_div'}, {'address_name': '1', 'building_name': 'Ижевск, аэропорт', 'full_name': 'Ижевск, Ижевск, аэропорт', 'id': '5770872677740480', 'name': 'Ижевск, аэропорт', 'point': {'lat': 56.830887, 'lon': 53.450555}, 'purpose_name': 'Airport', 'type': 'building'}], 'total': 4}}
{'meta': {'api_version': '3.0.868748', 'code': 200, 'issue_date': '20220810'}, 'result': {'items': [{'adm_div': [{'id': '70030076118166676', 'name': 'Барнаул городской округ', 'type': 'district_area'}], 'full_name': 'Барнаул', 'id': '563572723679253', 'name': 'Барнаул', 'point': {'lat': 53.376571, 'lon': 83.749103}, 'subtype': 'city', 'type': 'adm_div'}, {'address_name': '10', 'building_name': 'Барнаул, железнодорожный вокзал', 'full_name': 'Барнаул, Барнаул, железнодорожный вокзал', 'id': '563585608587481', 'name': 'Барнаул, железнодорожный вокзал', 'point': {'lat': 53.35122, 'lon': 83.757229}, 'purpose_name': 'Terminal', 'type': 'building'}, {'address_name': '3 / 135', 'building_name': 'Барнаул, гостиница', 'full_name': 'Барнаул, Барнаул, гостиница', 'id': '563585608581899', 'name': 'Барнаул, гостиница', 'point': {'lat': 53.34729, 'lon': 83.761209}, 'purpose_name': 'Administrative building', 'type': 'building'}, {'address_name': '8', 'building_name': 'Барнаул, речной вокзал', 'full_name': 'Барнаул, Барнаул, речной вокзал', 'id': '563585608582400', 'name': 'Барнаул, речной вокзал', 'point': {'lat': 53.327023, 'lon': 83.801609}, 'purpose_name': 'Structure', 'type': 'building'}, {'address_name': 'проспект Ленина, 55', 'adm_div': [{'id': '1', 'name': 'Россия', 'type': 'country'}, {'id': '1267655302447126', 'name': 'Алтайский край', 'type': 'region'}, {'id': '70030076118166676', 'name': 'Барнаул городской округ', 'type': 'district_area'}, {'city_alias': 'barnaul', 'flags': {'is_default': True, 'is_district_area_center': True, 'is_region_center': True}, 'id': '563572723679253', 'is_default': True, 'name': 'Барнаул', 'type': 'city'}, {'id': '563559838777352', 'name': 'Железнодорожный район', 'type': 'district'}], 'building_name': 'ЦУМ, г. Барнаул', 'full_name': 'Барнаул, ЦУМ, г. Барнаул', 'id': '563585608583818', 'name': 'ЦУМ, г. Барнаул', 'point': {'lat': 53.345586, 'lon': 83.778215}, 'purpose_name': 'Торговый центр', 'type': 'building'}], 'total': 5}}
{'meta': {'api_version': '3.0.868748', 'code': 200, 'issue_date': '20220810'}, 'result': {'items': [{'adm_div': [{'id': '70030076118167998', 'name': 'Ульяновск городской округ', 'type': 'district_area'}], 'full_name': 'Ульяновск', 'id': '7741184629801014', 'name': 'Ульяновск', 'point': {'lat': 54.307622, 'lon': 48.38901}, 'subtype': 'city', 'type': 'adm_div'}, {'address_name': '96', 'building_name': 'Ульяновск-Центральный, железнодорожный вокзал', 'full_name': 'Ульяновск, Ульяновск-Центральный, железнодорожный вокзал', 'id': '7741197514708725', 'name': 'Ульяновск-Центральный, железнодорожный вокзал', 'point': {'lat': 54.271669, 'lon': 48.321647}, 'purpose_name': 'Terminal', 'type': 'building'}, {'address_name': '20', 'building_name': 'Аэропорт Ульяновск', 'full_name': 'Ульяновск, Аэропорт Ульяновск', 'id': '7741197514726011', 'name': 'Аэропорт Ульяновск', 'point': {'lat': 54.286678, 'lon': 48.233501}, 'purpose_name': 'Airport', 'type': 'building'}, {'address_name': '48', 'building_name': 'Ульяновск, автовокзал', 'full_name': 'Ульяновск, Ульяновск, автовокзал', 'id': '7741197514704675', 'name': 'Ульяновск, автовокзал', 'point': {'lat': 54.303399, 'lon': 48.347276}, 'purpose_name': 'Terminal', 'type': 'building'}], 'total': 4}}
{'meta': {'api_version': '3.0.868748', 'code': 200, 'issue_date': '20220810'}, 'result': {'items': [{'adm_div': [{'id': '70030076118167127', 'name': 'Иркутск городской округ', 'type': 'district_area'}], 'full_name': 'Иркутск', 'id': '1548735142166607', 'name': 'Иркутск', 'point': {'lat': 52.28779, 'lon': 104.280722}, 'subtype': 'city', 'type': 'adm_div'}, {'address_name': 'Ширямова, 13Б', 'adm_div': [{'id': '1', 'name': 'Россия', 'type': 'country'}, {'id': '1267655302447152', 'name': 'Иркутская область', 'type': 'region'}, {'id': '70030076118167127', 'name': 'Иркутск городской округ', 'type': 'district_area'}, {'city_alias': 'irkutsk', 'flags': {'is_default': True, 'is_district_area_center': True, 'is_region_center': True}, 'id': '1548735142166607', 'is_default': True, 'name': 'Иркутск', 'type': 'city'}, {'id': '1548722257264643', 'name': 'Октябрьский район', 'type': 'district'}], 'building_name': 'Иркутск, международный аэропорт', 'full_name': 'Иркутск, Иркутск, международный аэропорт', 'id': '1548748027108242', 'name': 'Иркутск, международный аэропорт', 'point': {'lat': 52.272783, 'lon': 104.353123}, 'purpose_name': 'Аэропорт', 'type': 'building'}, {'address_name': '13', 'building_name': 'Международный аэропорт г. Иркутск', 'full_name': 'Иркутск, Международный аэропорт г. Иркутск', 'id': '1548748027087357', 'name': 'Международный аэропорт г. Иркутск', 'point': {'lat': 52.272748, 'lon': 104.35562}, 'purpose_name': 'Airport', 'type': 'building'}, {'address_name': '44', 'building_name': 'Иркутск, отель', 'full_name': 'Иркутск, Иркутск, отель', 'id': '1548748027071177', 'name': 'Иркутск, отель', 'point': {'lat': 52.282279, 'lon': 104.273009}, 'purpose_name': 'Administrative building', 'type': 'building'}, {'address_name': '9а', 'building_name': 'Иркутск-Сортировочный, железнодорожный вокзал', 'full_name': 'Иркутск, Иркутск-Сортировочный, железнодорожный вокзал', 'id': '1548748027071165', 'name': 'Иркутск-Сортировочный, железнодорожный вокзал', 'point': {'lat': 52.336622, 'lon': 104.21309}, 'purpose_name': 'Terminal', 'type': 'building'}, {'address_name': '11', 'building_name': 'Автостанция, г. Иркутск', 'full_name': 'Иркутск, Автостанция, г. Иркутск', 'id': '1548748027079093', 'name': 'Автостанция, г. Иркутск', 'point': {'lat': 52.289742, 'lon': 104.304686}, 'purpose_name': 'Terminal', 'type': 'building'}, {'full_name': 'Irkutsk region', 'id': '1267655302447152', 'name': 'Irkutsk region', 'point': {'lat': 55.414829, 'lon': 102.684782}, 'subtype': 'region', 'type': 'adm_div'}, {'address_name': '15', 'building_name': 'Кортъярд Марриотт Иркутск Сити Центр, отель', 'full_name': 'Иркутск, Кортъярд Марриотт Иркутск Сити Центр, отель', 'id': '1548748027108835', 'name': 'Кортъярд Марриотт Иркутск Сити Центр, отель', 'point': {'lat': 52.288243, 'lon': 104.273427}, 'purpose_name': 'Hotel', 'type': 'building'}], 'total': 8}}
{'meta': {'api_version': '3.0.868748', 'code': 200, 'issue_date': '20220810'}, 'result': {'items': [{'adm_div': [{'id': '70030076118166851', 'name': 'Хабаровск городской округ', 'type': 'district_area'}], 'full_name': 'Хабаровск', 'id': '4926434862694425', 'name': 'Хабаровск', 'point': {'lat': 48.479195, 'lon': 135.070113}, 'subtype': 'city', 'type': 'adm_div'}, {'address_name': '19', 'building_name': 'Хабаровск, автовокзал', 'full_name': 'Хабаровск, Хабаровск, автовокзал', 'id': '4926447747621194', 'name': 'Хабаровск, автовокзал', 'point': {'lat': 48.502621, 'lon': 135.065459}, 'purpose_name': 'Terminal', 'type': 'building'}, {'address_name': '26', 'building_name': 'Хабаровск, международный аэропорт им. Г.И. Невельского', 'full_name': 'Хабаровск, Хабаровск, международный аэропорт им. Г.И. Невельского', 'id': '4926447747622138', 'name': 'Хабаровск, международный аэропорт им. Г.И. Невельского', 'point': {'lat': 48.526998, 'lon': 135.172489}, 'purpose_name': 'Airport', 'type': 'building'}, {'address_name': '58', 'building_name': 'Железнодорожный вокзал Хабаровск-1', 'full_name': 'Хабаровск, Железнодорожный вокзал Хабаровск-1', 'id': '4926447747614461', 'name': 'Железнодорожный вокзал Хабаровск-1', 'point': {'lat': 48.496642, 'lon': 135.072727}, 'purpose_name': 'Terminal', 'type': 'building'}, {'address_name': '28', 'building_name': 'Хабаровск, международный аэропорт им. Г.И. Невельского', 'full_name': 'Хабаровск, Хабаровск, международный аэропорт им. Г.И. Невельского', 'id': '70030076193853369', 'name': 'Хабаровск, международный аэропорт им. Г.И. Невельского', 'point': {'lat': 48.526012, 'lon': 135.170513}, 'purpose_name': 'Airport', 'type': 'building'}], 'total': 5}}
{'meta': {'api_version': '3.0.868748', 'code': 200, 'issue_date': '20220810'}, 'result': {'items': [{'adm_div': [{'id': '70030076118166327', 'name': 'Махачкала городской округ', 'type': 'district_area'}], 'full_name': 'Махачкала', 'id': '15903958954410051', 'name': 'Махачкала', 'point': {'lat': 42.96703, 'lon': 47.511053}, 'subtype': 'city', 'type': 'adm_div'}, {'address_name': 'терминал А', 'building_name': 'Махачкала, аэропорт', 'full_name': 'Махачкала, Махачкала, аэропорт', 'id': '15903971839409085', 'name': 'Махачкала, аэропорт', 'point': {'lat': 42.820947, 'lon': 47.655693}, 'purpose_name': 'Airport', 'type': 'building'}, {'address_name': '10', 'building_name': 'Махачкала, железнодорожный вокзал', 'full_name': 'Махачкала, Махачкала, железнодорожный вокзал', 'id': '15903971839312897', 'name': 'Махачкала, железнодорожный вокзал', 'point': {'lat': 42.987235, 'lon': 47.504052}, 'purpose_name': 'Terminal', 'type': 'building'}], 'total': 3}}
{'meta': {'api_version': '3.0.868748', 'code': 200, 'issue_date': '20220810'}, 'result': {'items': [{'adm_div': [{'id': '70030076118166808', 'name': 'Владивостокский городской округ', 'type': 'district_area'}], 'full_name': 'Владивосток', 'id': '3519059979141128', 'name': 'Владивосток', 'point': {'lat': 43.120645, 'lon': 131.887051}, 'subtype': 'city', 'type': 'adm_div'}, {'address_name': '2а', 'building_name': 'Владивосток, автовокзал', 'full_name': 'Владивосток, Владивосток, автовокзал', 'id': '3519072864047097', 'name': 'Владивосток, автовокзал', 'point': {'lat': 43.164612, 'lon': 131.905388}, 'purpose_name': 'Terminal', 'type': 'building'}, {'address_name': '45', 'building_name': 'Владивосток, международный аэропорт им. В.К. Арсеньева', 'full_name': 'Артем, Владивосток, международный аэропорт им. В.К. Арсеньева', 'id': '3519072864076522', 'name': 'Владивосток, международный аэропорт им. В.К. Арсеньева', 'point': {'lat': 43.396422, 'lon': 132.165537}, 'purpose_name': 'Airport', 'type': 'building'}, {'address_name': '1', 'building_name': 'Владивосток, морской вокзал', 'full_name': 'Владивосток, Владивосток, морской вокзал', 'id': '3519072864048346', 'name': 'Владивосток, морской вокзал', 'point': {'lat': 43.11083, 'lon': 131.882527}, 'purpose_name': 'Terminal', 'type': 'building'}, {'address_name': '10', 'building_name': 'AZIMUT Сити Отель Владивосток', 'full_name': 'Владивосток, AZIMUT Сити Отель Владивосток', 'id': '3519072864048252', 'name': 'AZIMUT Сити Отель Владивосток', 'point': {'lat': 43.11436, 'lon': 131.875538}, 'purpose_name': 'Hotel', 'type': 'building'}, {'address_name': '4', 'building_name': 'АРБАТ-Владивосток, апарт-отель', 'full_name': 'Владивосток, АРБАТ-Владивосток, апарт-отель', 'id': '3519072864080136', 'name': 'АРБАТ-Владивосток, апарт-отель', 'point': {'lat': 43.117519, 'lon': 131.879954}, 'purpose_name': 'Hotel', 'type': 'building'}, {'full_name': 'Владивосток, Морской вокзал Владивосток', 'id': '3519132993585346', 'name': 'Морской вокзал Владивосток', 'point': {'lat': 43.111773, 'lon': 131.883108}, 'subtype': 'sea_port', 'subtype_name': 'Sea port', 'type': 'attraction'}], 'total': 7}}
{'meta': {'api_version': '3.0.868748', 'code': 200, 'issue_date': '20220810'}, 'result': {'items': [{'adm_div': [{'id': '70030076118168095', 'name': 'Ярославль городской округ', 'type': 'district_area'}], 'full_name': 'Ярославль', 'id': '3941272444207172', 'name': 'Ярославль', 'point': {'lat': 57.625601, 'lon': 39.891254}, 'subtype': 'city', 'type': 'adm_div'}, {'address_name': '1', 'building_name': 'Ярославль, железнодорожный вокзал', 'full_name': 'Ярославль, Ярославль, железнодорожный вокзал', 'id': '3941285329135168', 'name': 'Ярославль, железнодорожный вокзал', 'point': {'lat': 57.600668, 'lon': 39.872014}, 'purpose_name': 'Terminal', 'type': 'building'}, {'address_name': '2а', 'building_name': 'Ибис Ярославль Центр, отель', 'full_name': 'Ярославль, Ибис Ярославль Центр, отель', 'id': '3941285329135915', 'name': 'Ибис Ярославль Центр, отель', 'point': {'lat': 57.629295, 'lon': 39.888286}, 'purpose_name': 'Hotel', 'type': 'building'}], 'total': 3}}
{'meta': {'api_version': '3.0.868748', 'code': 200, 'issue_date': '20220810'}, 'result': {'items': [{'adm_div': [{'id': '70030076118167481', 'name': 'Оренбург городской округ', 'type': 'district_area'}], 'full_name': 'Оренбург', 'id': '6756022211313701', 'name': 'Оренбург', 'point': {'lat': 51.767519, 'lon': 55.097593}, 'subtype': 'city', 'type': 'adm_div'}, {'address_name': '1', 'building_name': 'Оренбург, международный аэропорт', 'full_name': 'Нежинка, Оренбург, международный аэропорт', 'id': '6756035096243146', 'name': 'Оренбург, международный аэропорт', 'point': {'lat': 51.791417, 'lon': 55.457189}, 'purpose_name': 'Airport', 'type': 'building'}, {'address_name': '30', 'building_name': 'Оренбург, гостиница', 'full_name': 'Оренбург, Оренбург, гостиница', 'id': '6756035096220453', 'name': 'Оренбург, гостиница', 'point': {'lat': 51.768396, 'lon': 55.112938}, 'purpose_name': 'Hotel', 'type': 'building'}, {'full_name': 'Orenburg region', 'id': '1267655302447169', 'name': 'Orenburg region', 'point': {'lat': 52.476639, 'lon': 53.931101}, 'subtype': 'region', 'type': 'adm_div'}], 'total': 4}}
{'meta': {'api_version': '3.0.868748', 'code': 200, 'issue_date': '20220810'}, 'result': {'items': [{'adm_div': [{'id': '70030076118167940', 'name': 'Томск городской округ', 'type': 'district_area'}], 'full_name': 'Томск', 'id': '422835235324469', 'name': 'Томск', 'point': {'lat': 56.488128, 'lon': 84.948637}, 'subtype': 'city', 'type': 'adm_div'}, {'address_name': '68', 'building_name': 'Томск, автовокзал', 'full_name': 'Томск, Томск, автовокзал', 'id': '422848120233871', 'name': 'Томск, автовокзал', 'point': {'lat': 56.46128, 'lon': 84.991371}, 'purpose_name': 'Terminal', 'type': 'building'}, {'address_name': '1 / 70', 'building_name': 'Томск 1, железнодорожный вокзал', 'full_name': 'Томск, Томск 1, железнодорожный вокзал', 'id': '422848120236113', 'name': 'Томск 1, железнодорожный вокзал', 'point': {'lat': 56.460443, 'lon': 84.990836}, 'purpose_name': 'Terminal', 'type': 'building'}, {'address_name': '1Б', 'building_name': 'Томск, международный аэропорт им. Н.И. Камова', 'full_name': 'Томск, международный аэропорт им. Н.И. Камова', 'id': '422848120244249', 'name': 'Томск, международный аэропорт им. Н.И. Камова', 'point': {'lat': 56.388198, 'lon': 85.209532}, 'purpose_name': 'Airport', 'type': 'building'}, {'address_name': '69', 'building_name': 'Томск 2, железнодорожный вокзал', 'full_name': 'Томск, Томск 2, железнодорожный вокзал', 'id': '422848120231450', 'name': 'Томск 2, железнодорожный вокзал', 'point': {'lat': 56.506761, 'lon': 84.99821}, 'purpose_name': 'Terminal', 'type': 'building'}], 'total': 5}}
{'meta': {'api_version': '3.0.868748', 'code': 200, 'issue_date': '20220810'}, 'result': {'items': [{'adm_div': [{'id': '70030076118167223', 'name': 'Кемеровский городской округ', 'type': 'district_area'}], 'full_name': 'Кемерово', 'id': '704310212034621', 'name': 'Кемерово', 'point': {'lat': 55.344258, 'lon': 86.061715}, 'subtype': 'city', 'type': 'adm_div'}, {'address_name': '81', 'building_name': 'Кемерово, автовокзал', 'full_name': 'Кемерово, Кемерово, автовокзал', 'id': '704323096940267', 'name': 'Кемерово, автовокзал', 'point': {'lat': 55.341522, 'lon': 86.061103}, 'purpose_name': 'Terminal', 'type': 'building'}, {'address_name': '3', 'building_name': 'Международный аэропорт Кемерово им. А.А. Леонова', 'full_name': 'Кемерово, Международный аэропорт Кемерово им. А.А. Леонова', 'id': '70030076221926457', 'name': 'Международный аэропорт Кемерово им. А.А. Леонова', 'point': {'lat': 55.28018, 'lon': 86.115303}, 'purpose_name': 'Airport', 'type': 'building'}, {'address_name': '79', 'building_name': 'Железнодорожный вокзал г. Кемерово', 'full_name': 'Кемерово, Железнодорожный вокзал г. Кемерово', 'id': '704323096940212', 'name': 'Железнодорожный вокзал г. Кемерово', 'point': {'lat': 55.344242, 'lon': 86.060035}, 'purpose_name': 'Terminal', 'type': 'building'}, {'full_name': 'Kemerovo Region', 'id': '1267655302447155', 'name': 'Kemerovo Region', 'point': {'lat': 55.26338, 'lon': 86.646906}, 'subtype': 'region', 'type': 'adm_div'}], 'total': 5}}
{'meta': {'api_version': '3.0.868748', 'code': 200, 'issue_date': '20220810'}, 'result': {'items': [{'adm_div': [{'id': '70030076118167226', 'name': 'Новокузнецкий городской округ', 'type': 'district_area'}], 'full_name': 'Новокузнецк', 'id': '845047700390010', 'name': 'Новокузнецк', 'point': {'lat': 53.74774, 'lon': 87.118981}, 'subtype': 'city', 'type': 'adm_div'}, {'address_name': '4', 'building_name': 'Новокузнецк, автовокзал', 'full_name': 'Новокузнецк, Новокузнецк, автовокзал', 'id': '845060585296577', 'name': 'Новокузнецк, автовокзал', 'point': {'lat': 53.746633, 'lon': 87.118848}, 'purpose_name': 'Terminal', 'type': 'building'}, {'address_name': '2', 'building_name': 'Железнодорожный вокзал г. Новокузнецк', 'full_name': 'Новокузнецк, Железнодорожный вокзал г. Новокузнецк', 'id': '845060585352904', 'name': 'Железнодорожный вокзал г. Новокузнецк', 'point': {'lat': 53.746739, 'lon': 87.117614}, 'purpose_name': 'Terminal', 'type': 'building'}], 'total': 3}}
{'meta': {'api_version': '3.0.868748', 'code': 200, 'issue_date': '20220810'}, 'result': {'items': [{'adm_div': [{'id': '70030076118167681', 'name': 'Рязань городской округ', 'type': 'district_area'}], 'full_name': 'Рязань', 'id': '6193072257892359', 'name': 'Рязань', 'point': {'lat': 54.612965, 'lon': 39.690839}, 'subtype': 'city', 'type': 'adm_div'}, {'address_name': '26а', 'building_name': 'Рязань-1, железнодорожный вокзал', 'full_name': 'Рязань, Рязань-1, железнодорожный вокзал', 'id': '6193085142806917', 'name': 'Рязань-1, железнодорожный вокзал', 'point': {'lat': 54.633312, 'lon': 39.713028}, 'purpose_name': 'Terminal', 'type': 'building'}, {'address_name': '1', 'building_name': 'Рязань-2, железнодорожный вокзал', 'full_name': 'Рязань, Рязань-2, железнодорожный вокзал', 'id': '6193085142815158', 'name': 'Рязань-2, железнодорожный вокзал', 'point': {'lat': 54.628716, 'lon': 39.700895}, 'purpose_name': 'Terminal', 'type': 'building'}], 'total': 3}}
{'meta': {'api_version': '3.0.868748', 'code': 200, 'issue_date': '20220810'}, 'result': {'items': [{'adm_div': [{'id': '70030076118166541', 'name': 'Набережные Челны городской округ', 'type': 'district_area'}], 'full_name': 'Набережные Челны', 'id': '4082009932562459', 'name': 'Набережные Челны', 'point': {'lat': 55.734543, 'lon': 52.401881}, 'subtype': 'city', 'type': 'adm_div'}, {'address_name': 'проспект Чулман, 105/1', 'adm_div': [{'id': '1', 'name': 'Россия', 'type': 'country'}, {'id': '1267655302447120', 'name': 'Республика Татарстан', 'type': 'region'}, {'id': '70030076118166541', 'name': 'Набережные Челны городской округ', 'type': 'district_area'}, {'city_alias': 'nabchelny', 'flags': {'is_default': True, 'is_district_area_center': True}, 'id': '4082009932562459', 'is_default': True, 'name': 'Набережные Челны', 'type': 'city'}, {'id': '4081997047660586', 'name': 'Автозаводский район', 'type': 'district'}, {'id': '4082048587268177', 'name': 'Новый Город', 'type': 'living_area'}], 'building_name': 'Набережные Челны, клиника-санаторий', 'full_name': 'Набережные Челны, Набережные Челны, клиника-санаторий', 'id': '4082022817468280', 'name': 'Набережные Челны, клиника-санаторий', 'point': {'lat': 55.767377, 'lon': 52.413798}, 'purpose_name': 'Санаторий, профилакторий', 'type': 'building'}, {'address_name': 'проспект Мусы Джалиля, 7', 'adm_div': [{'id': '1', 'name': 'Россия', 'type': 'country'}, {'id': '1267655302447120', 'name': 'Республика Татарстан', 'type': 'region'}, {'id': '70030076118166541', 'name': 'Набережные Челны городской округ', 'type': 'district_area'}, {'city_alias': 'nabchelny', 'flags': {'is_default': True, 'is_district_area_center': True}, 'id': '4082009932562459', 'is_default': True, 'name': 'Набережные Челны', 'type': 'city'}, {'id': '4081997047660585', 'name': 'Комсомольский район', 'type': 'district'}], 'building_name': 'Железнодорожный вокзал г. Набережные Челны', 'full_name': 'Набережные Челны, Железнодорожный вокзал г. Набережные Челны', 'id': '4082022817473101', 'name': 'Железнодорожный вокзал г. Набережные Челны', 'point': {'lat': 55.672171, 'lon': 52.276301}, 'purpose_name': 'Вокзал', 'type': 'building'}], 'total': 3}}
{'meta': {'api_version': '3.0.868748', 'code': 200, 'issue_date': '20220810'}, 'result': {'items': [{'adm_div': [{'id': '70030076118167244', 'name': 'Киров городской округ', 'type': 'district_area'}], 'full_name': 'Киров', 'id': '8163397094867289', 'name': 'Киров', 'point': {'lat': 58.603569, 'lon': 49.666551}, 'subtype': 'city', 'type': 'adm_div'}, {'adm_div': [{'id': '1267655302447154', 'name': 'Kaluga region', 'type': 'region'}, {'id': '70030076118167190', 'name': 'Кировский район', 'type': 'district_area'}], 'full_name': 'Kirov', 'id': '70030076128126043', 'name': 'Kirov', 'point': {'lat': 54.074507, 'lon': 34.299752}, 'subtype': 'city', 'type': 'adm_div'}, {'address_name': '42', 'building_name': 'Киров, железнодорожный вокзал', 'full_name': 'Киров, Киров, железнодорожный вокзал', 'id': '8163409979776588', 'name': 'Киров, железнодорожный вокзал', 'point': {'lat': 58.578669, 'lon': 49.651498}, 'purpose_name': 'Terminal', 'type': 'building'}, {'address_name': '57', 'building_name': 'Автовокзал г. Кирова', 'full_name': 'Киров, Автовокзал г. Кирова', 'id': '8163409979778486', 'name': 'Автовокзал г. Кирова', 'point': {'lat': 58.583132, 'lon': 49.650466}, 'purpose_name': 'Terminal', 'type': 'building'}, {'adm_div': [{'id': '1', 'name': 'Россия', 'type': 'country'}, {'id': '1267655302447125', 'name': 'Чувашская Республика — Чувашия', 'type': 'region'}, {'id': '70030076118166662', 'name': 'Комсомольский район', 'type': 'district_area'}], 'full_name': 'Киров', 'id': '70030076128009729', 'name': 'Киров', 'point': {'lat': 55.310401, 'lon': 47.569814}, 'subtype': 'settlement', 'subtype_specification': 'Посёлок', 'type': 'adm_div'}, {'address_name': 'Октябрьский проспект, 104', 'adm_div': [{'id': '1', 'name': 'Россия', 'type': 'country'}, {'id': '1267655302447156', 'name': 'Кировская область', 'type': 'region'}, {'id': '70030076118167244', 'name': 'Киров городской округ', 'type': 'district_area'}, {'city_alias': 'kirov', 'flags': {'is_default': True, 'is_district_area_center': True, 'is_region_center': True}, 'id': '8163397094867289', 'is_default': True, 'name': 'Киров', 'type': 'city'}, {'id': '8163384209965064', 'name': 'Ленинский район', 'type': 'district'}], 'building_name': 'Kirov Project, деловой центр', 'full_name': 'Киров, Kirov Project, деловой центр', 'id': '8163409979771632', 'name': 'Kirov Project, деловой центр', 'point': {'lat': 58.588936, 'lon': 49.659424}, 'purpose_name': 'Бизнес-центр', 'type': 'building'}, {'full_name': 'Kirov region', 'id': '1267655302447156', 'name': 'Kirov region', 'point': {'lat': 58.259071, 'lon': 49.468593}, 'subtype': 'region', 'type': 'adm_div'}], 'total': 7}}
{'meta': {'api_version': '3.0.868748', 'code': 200, 'issue_date': '20220810'}, 'result': {'items': [{'adm_div': [], 'full_name': 'Севастополь', 'id': '20407558620627866', 'name': 'Севастополь', 'point': {'lat': 44.606409, 'lon': 33.517786}, 'subtype': 'city', 'type': 'adm_div'}, {'address_name': '1а к4', 'building_name': 'Севастополь, торговый центр', 'full_name': 'Москва, Севастополь, торговый центр', 'id': '4504235282595800', 'name': 'Севастополь, торговый центр', 'point': {'lat': 55.650845, 'lon': 37.59637}, 'purpose_name': 'Administrative building', 'type': 'building'}, {'address_name': '1а к2', 'building_name': 'Севастополь Модерн, гостиничный комплекс', 'full_name': 'Москва, Севастополь Модерн, гостиничный комплекс', 'id': '4504235282595807', 'name': 'Севастополь Модерн, гостиничный комплекс', 'point': {'lat': 55.649607, 'lon': 37.595301}, 'purpose_name': 'Hotel', 'type': 'building'}, {'address_name': '5', 'building_name': 'Севастополь-Пассажирский, железнодорожный вокзал', 'full_name': 'Севастополь, Севастополь-Пассажирский, железнодорожный вокзал', 'id': '20407571502769424', 'name': 'Севастополь-Пассажирский, железнодорожный вокзал', 'point': {'lat': 44.595008, 'lon': 33.529131}, 'purpose_name': 'Terminal', 'type': 'building'}], 'total': 4}}
{'meta': {'api_version': '3.0.868748', 'code': 200, 'issue_date': '20220810'}, 'result': {'items': [{'adm_div': [{'id': '1267655302447144', 'name': 'Астраханская область', 'type': 'region'}, {'id': '70030076118166921', 'name': 'Астрахань городской округ', 'type': 'district_area'}], 'full_name': 'Астрахань', 'id': '1126522677100564', 'name': 'Астрахань', 'point': {'lat': 46.344266, 'lon': 48.029908}, 'subtype': 'city', 'type': 'adm_div'}, {'address_name': '1 ст2', 'building_name': 'Астрахань, международный аэропорт им. Б.М. Кустодиева', 'full_name': 'Астрахань, Астрахань, международный аэропорт им. Б.М. Кустодиева', 'id': '1126535562022426', 'name': 'Астрахань, международный аэропорт им. Б.М. Кустодиева', 'point': {'lat': 46.287187, 'lon': 48.000149}, 'purpose_name': 'Airport', 'type': 'building'}], 'total': 2}}
{'meta': {'api_version': '3.0.868748', 'code': 200, 'issue_date': '20220810'}, 'result': {'items': [{'adm_div': [{'id': '1267655302447163', 'name': 'Московская область', 'type': 'region'}, {'id': '1267651007479930', 'name': 'Балашиха городской округ', 'type': 'district_area'}], 'full_name': 'Балашиха', 'id': '4504222397629320', 'name': 'Балашиха', 'point': {'lat': 55.795805, 'lon': 37.939022}, 'subtype': 'city', 'type': 'adm_div'}], 'total': 1}}
{'meta': {'api_version': '3.0.868748', 'code': 200, 'issue_date': '20220810'}, 'result': {'items': [{'adm_div': [{'id': '1267655302447171', 'name': 'Пензенская область', 'type': 'region'}, {'id': '70030076118167546', 'name': 'Пенза городской округ', 'type': 'district_area'}], 'full_name': 'Пенза', 'id': '5911597281181703', 'name': 'Пенза', 'point': {'lat': 53.213469, 'lon': 44.988893}, 'subtype': 'city', 'type': 'adm_div'}, {'address_name': '10', 'building_name': 'Пенза, гостиница', 'full_name': 'Пенза, Пенза, гостиница', 'id': '5911610166085113', 'name': 'Пенза, гостиница', 'point': {'lat': 53.194564, 'lon': 45.0232}, 'purpose_name': 'Mixed-use complex', 'type': 'building'}, {'address_name': '1', 'building_name': 'Пенза-I, железнодорожный вокзал', 'full_name': 'Пенза, Пенза-I, железнодорожный вокзал', 'id': '5911610166108053', 'name': 'Пенза-I, железнодорожный вокзал', 'point': {'lat': 53.204035, 'lon': 45.012414}, 'purpose_name': 'Terminal', 'type': 'building'}, {'address_name': '2', 'building_name': 'Пенза, аэропорт им. В.Г. Белинского', 'full_name': 'Пенза, Пенза, аэропорт им. В.Г. Белинского', 'id': '5911610166102537', 'name': 'Пенза, аэропорт им. В.Г. Белинского', 'point': {'lat': 53.118304, 'lon': 45.02283}, 'purpose_name': 'Airport', 'type': 'building'}], 'total': 4}}
{'meta': {'api_version': '3.0.868748', 'code': 200, 'issue_date': '20220810'}, 'result': {'items': [{'adm_div': [{'id': '1267655302447153', 'name': 'Калининградская область', 'type': 'region'}, {'id': '70030076118167161', 'name': 'Калининград городской округ', 'type': 'district_area'}], 'full_name': 'Калининград', 'id': '5630122304471834', 'name': 'Калининград', 'point': {'lat': 54.723292, 'lon': 20.453339}, 'subtype': 'city', 'type': 'adm_div'}, {'address_name': '7', 'building_name': 'Калининград, автовокзал', 'full_name': 'Калининград, Калининград, автовокзал', 'id': '5630135189376208', 'name': 'Калининград, автовокзал', 'point': {'lat': 54.693516, 'lon': 20.501788}, 'purpose_name': 'Terminal', 'type': 'building'}, {'address_name': '81', 'building_name': 'Калининград, гостиница', 'full_name': 'Калининград, Калининград, гостиница', 'id': '5630135189387513', 'name': 'Калининград, гостиница', 'point': {'lat': 54.712225, 'lon': 20.509943}, 'purpose_name': 'Hotel', 'type': 'building'}, {'address_name': '2', 'building_name': 'Калининград Северный, железнодорожный вокзал', 'full_name': 'Калининград, Калининград Северный, железнодорожный вокзал', 'id': '5630135189399759', 'name': 'Калининград Северный, железнодорожный вокзал', 'point': {'lat': 54.721402, 'lon': 20.500102}, 'purpose_name': 'Terminal', 'type': 'building'}, {'address_name': '13-25', 'building_name': 'Калининград Южный, железнодорожный вокзал', 'full_name': 'Калининград, Калининград Южный, железнодорожный вокзал', 'id': '5630135189376075', 'name': 'Калининград Южный, железнодорожный вокзал', 'point': {'lat': 54.69453, 'lon': 20.497837}, 'purpose_name': 'Terminal', 'type': 'building'}, {'address_name': '30', 'building_name': 'Калининград Плаза, торгово-развлекательный центр', 'full_name': 'Калининград, Калининград Плаза, торгово-развлекательный центр', 'id': '5630135189373308', 'name': 'Калининград Плаза, торгово-развлекательный центр', 'point': {'lat': 54.711533, 'lon': 20.508534}, 'purpose_name': 'Shopping and entertainment complex', 'type': 'building'}, {'full_name': 'Калининград, Остров Иммануила Канта (Кнайпхоф)', 'id': '5630186728980513', 'name': 'Остров Иммануила Канта (Кнайпхоф)', 'point': {'lat': 54.705996, 'lon': 20.512015}, 'subtype': 'place', 'type': 'adm_div'}, {'full_name': 'Kaliningrad region', 'id': '1267655302447153', 'name': 'Kaliningrad region', 'point': {'lat': 54.788291, 'lon': 21.145077}, 'subtype': 'region', 'type': 'adm_div'}, {'address_name': '1', 'building_name': 'Администрация г. Калининград', 'full_name': 'Калининград, Администрация г. Калининград', 'id': '5630135189373862', 'name': 'Администрация г. Калининград', 'point': {'lat': 54.719256, 'lon': 20.500554}, 'purpose_name': 'Administrative building', 'type': 'building'}], 'total': 9}}
{'meta': {'api_version': '3.0.868748', 'code': 200, 'issue_date': '20220810'}, 'result': {'items': [{'adm_div': [{'id': '1267655302447125', 'name': 'Чувашская Республика — Чувашия', 'type': 'region'}, {'id': '70030076118166650', 'name': 'Чебоксары городской округ', 'type': 'district_area'}], 'full_name': 'Чебоксары', 'id': '7459709653090305', 'name': 'Чебоксары', 'point': {'lat': 56.139692, 'lon': 47.249282}, 'subtype': 'city', 'type': 'adm_div'}, {'address_name': '1', 'building_name': 'Чебоксары, международный аэропорт им. А.Г. Николаева', 'full_name': 'Чебоксары, Чебоксары, международный аэропорт им. А.Г. Николаева', 'id': '7459722538007268', 'name': 'Чебоксары, международный аэропорт им. А.Г. Николаева', 'point': {'lat': 56.082672, 'lon': 47.320003}, 'purpose_name': 'Airport', 'type': 'building'}], 'total': 2}}
{'meta': {'api_version': '3.0.868748', 'code': 200, 'issue_date': '20220810'}, 'result': {'items': [{'adm_div': [{'id': '1267655302447161', 'name': 'Липецкая область', 'type': 'region'}, {'id': '70030076118167360', 'name': 'Липецк городской округ', 'type': 'district_area'}], 'full_name': 'Липецк', 'id': '7881922118156289', 'name': 'Липецк', 'point': {'lat': 52.580639, 'lon': 39.578539}, 'subtype': 'city', 'type': 'adm_div'}, {'address_name': '89', 'building_name': 'Липецк, автовокзал', 'full_name': 'Липецк, Липецк, автовокзал', 'id': '7881935003069583', 'name': 'Липецк, автовокзал', 'point': {'lat': 52.585538, 'lon': 39.549177}, 'purpose_name': 'Terminal', 'type': 'building'}, {'address_name': '106', 'building_name': 'Липецк, железнодорожный вокзал', 'full_name': 'Липецк, Липецк, железнодорожный вокзал', 'id': '7881935003068845', 'name': 'Липецк, железнодорожный вокзал', 'point': {'lat': 52.623456, 'lon': 39.568512}, 'purpose_name': 'Terminal', 'type': 'building'}], 'total': 3}}
{'meta': {'api_version': '3.0.868748', 'code': 200, 'issue_date': '20220810'}, 'result': {'items': [{'adm_div': [{'id': '1267655302447183', 'name': 'Тульская область', 'type': 'region'}, {'id': '5067563193073745', 'name': 'Тула городской округ', 'type': 'district_area'}], 'full_name': 'Тула', 'id': '5067172351050327', 'name': 'Тула', 'point': {'lat': 54.194016, 'lon': 37.619384}, 'subtype': 'city', 'type': 'adm_div'}, {'adm_div': [{'id': '1267655302447167', 'name': 'Novosibirsk region', 'type': 'region'}, {'id': '141751100637270', 'name': 'Новосибирский район', 'type': 'district_area'}], 'full_name': 'Верх-Тула', 'id': '141360258613264', 'name': 'Верх-Тула', 'point': {'lat': 54.879526, 'lon': 82.773314}, 'subtype': 'settlement', 'subtype_specification': 'Village', 'type': 'adm_div'}, {'full_name': 'Tula region', 'id': '1267655302447183', 'name': 'Tula region', 'point': {'lat': 53.89457, 'lon': 37.574872}, 'subtype': 'region', 'type': 'adm_div'}], 'total': 3}}
{'meta': {'api_version': '3.0.868748', 'code': 200, 'issue_date': '20220810'}, 'result': {'items': [{'adm_div': [{'id': '1267655302447133', 'name': 'Ставропольский край', 'type': 'region'}, {'id': '70030076118166822', 'name': 'Ставрополь городской округ', 'type': 'district_area'}], 'full_name': 'Ставрополь', 'id': '8022659606511630', 'name': 'Ставрополь', 'point': {'lat': 45.035209, 'lon': 41.97818}, 'subtype': 'city', 'type': 'adm_div'}, {'address_name': '27', 'building_name': 'Ставрополь, автовокзал', 'full_name': 'Ставрополь, Ставрополь, автовокзал', 'id': '8022672491423461', 'name': 'Ставрополь, автовокзал', 'point': {'lat': 45.037234, 'lon': 41.970134}, 'purpose_name': 'Terminal', 'type': 'building'}, {'address_name': '1', 'building_name': 'Ставрополь, международный аэропорт им. А.В. Суворова', 'full_name': 'Ставрополь, Ставрополь, международный аэропорт им. А.В. Суворова', 'id': '8022672491477671', 'name': 'Ставрополь, международный аэропорт им. А.В. Суворова', 'point': {'lat': 45.112696, 'lon': 42.1051}, 'purpose_name': 'Airport', 'type': 'building'}, {'address_name': '15', 'building_name': 'Ставрополь, железнодорожный вокзал', 'full_name': 'Ставрополь, Ставрополь, железнодорожный вокзал', 'id': '8022672491419796', 'name': 'Ставрополь, железнодорожный вокзал', 'point': {'lat': 45.055134, 'lon': 41.999995}, 'purpose_name': 'Terminal', 'type': 'building'}, {'address_name': '273', 'building_name': 'Ставрополь, гостиница', 'full_name': 'Ставрополь, Ставрополь, гостиница', 'id': '8022672491439342', 'name': 'Ставрополь, гостиница', 'point': {'lat': 45.038713, 'lon': 41.955091}, 'purpose_name': 'Hotel', 'type': 'building'}], 'total': 5}}
{'meta': {'api_version': '3.0.868748', 'code': 200, 'issue_date': '20220810'}, 'result': {'items': [{'adm_div': [{'id': '1267655302447159', 'name': 'Курская область', 'type': 'region'}, {'id': '70030076118167327', 'name': 'Курск городской округ', 'type': 'district_area'}], 'full_name': 'Курск', 'id': '10274459420196967', 'name': 'Курск', 'point': {'lat': 51.730617, 'lon': 36.192605}, 'subtype': 'city', 'type': 'adm_div'}, {'address_name': '1', 'building_name': 'Курск, железнодорожный вокзал', 'full_name': 'Курск, Курск, железнодорожный вокзал', 'id': '10274472305121657', 'name': 'Курск, железнодорожный вокзал', 'point': {'lat': 51.749885, 'lon': 36.227735}, 'purpose_name': 'Terminal', 'type': 'building'}, {'address_name': '114', 'building_name': 'Автовокзал г. Курск', 'full_name': 'Курск, Автовокзал г. Курск', 'id': '10274472305109689', 'name': 'Автовокзал г. Курск', 'point': {'lat': 51.749455, 'lon': 36.139287}, 'purpose_name': 'Terminal', 'type': 'building'}, {'address_name': '1', 'building_name': 'Курск, аэропорт', 'full_name': 'Курск, Курск, аэропорт', 'id': '10274472305106065', 'name': 'Курск, аэропорт', 'point': {'lat': 51.749425, 'lon': 36.282566}, 'purpose_name': 'Airport', 'type': 'building'}, {'full_name': 'Kursk region', 'id': '1267655302447159', 'name': 'Kursk region', 'point': {'lat': 51.679919, 'lon': 36.300018}, 'subtype': 'region', 'type': 'adm_div'}], 'total': 5}}
{'meta': {'api_version': '3.0.868748', 'code': 200, 'issue_date': '20220810'}, 'result': {'items': [{'adm_div': [{'id': '1267655302447108', 'name': 'Республика Бурятия', 'type': 'region'}, {'id': '70030076118166297', 'name': 'Улан-Удэ городской округ', 'type': 'district_area'}], 'full_name': 'Улан-Удэ', 'id': '5207909839405058', 'name': 'Улан-Удэ', 'point': {'lat': 51.836038, 'lon': 107.639962}, 'subtype': 'city', 'type': 'adm_div'}, {'address_name': 'Революции 1905 года, 35', 'adm_div': [{'id': '1', 'name': 'Россия', 'type': 'country'}, {'id': '1267655302447108', 'name': 'Республика Бурятия', 'type': 'region'}, {'id': '70030076118166297', 'name': 'Улан-Удэ городской округ', 'type': 'district_area'}, {'city_alias': 'ulanude', 'flags': {'is_default': True, 'is_district_area_center': True, 'is_region_center': True}, 'id': '5207909839405058', 'is_default': True, 'name': 'Улан-Удэ', 'type': 'city'}, {'id': '5207896954503171', 'name': 'Железнодорожный район', 'type': 'district'}], 'building_name': 'Улан-Удэ, железнодорожный вокзал', 'full_name': 'Улан-Удэ, Улан-Удэ, железнодорожный вокзал', 'id': '5207922724328235', 'name': 'Улан-Удэ, железнодорожный вокзал', 'point': {'lat': 51.840668, 'lon': 107.5831}, 'purpose_name': 'Вокзал', 'type': 'building'}, {'address_name': 'проспект Строителей, 72', 'adm_div': [{'id': '1', 'name': 'Россия', 'type': 'country'}, {'id': '1267655302447108', 'name': 'Республика Бурятия', 'type': 'region'}, {'id': '70030076118166297', 'name': 'Улан-Удэ городской округ', 'type': 'district_area'}, {'city_alias': 'ulanude', 'flags': {'is_default': True, 'is_district_area_center': True, 'is_region_center': True}, 'id': '5207909839405058', 'is_default': True, 'name': 'Улан-Удэ', 'type': 'city'}, {'id': '5207896954503169', 'name': 'Октябрьский район', 'type': 'district'}, {'detailed_subtype': 'residential_quarter', 'id': '5207948494110739', 'name': '47-й\xa0квартал', 'type': 'living_area'}], 'building_name': 'Культурно-спортивный комплекс г. Улан-Удэ', 'full_name': 'Улан-Удэ, Культурно-спортивный комплекс г. Улан-Удэ', 'id': '5207922724328894', 'name': 'Культурно-спортивный комплекс г. Улан-Удэ', 'point': {'lat': 51.812236, 'lon': 107.652303}, 'purpose_name': 'Административное здание', 'type': 'building'}, {'adm_div': [{'id': '1267655302447108', 'name': 'Republic of Buryatia', 'type': 'region'}], 'full_name': 'Улан-Удэ городской округ', 'id': '70030076118166297', 'name': 'Улан-Удэ городской округ', 'point': {'lat': 51.836051, 'lon': 107.639934}, 'subtype': 'district_area', 'type': 'adm_div'}], 'total': 4}}
{'meta': {'api_version': '3.0.868748', 'code': 200, 'issue_date': '20220810'}, 'result': {'items': [{'adm_div': [{'id': '1267655302447129', 'name': 'Краснодарский край', 'type': 'region'}, {'id': '70030076118166732', 'name': 'Сочи городской округ', 'type': 'district_area'}], 'full_name': 'Сочи', 'id': '4222747420917890', 'name': 'Сочи', 'point': {'lat': 43.593975, 'lon': 39.727081}, 'subtype': 'city', 'type': 'adm_div'}, {'adm_div': [{'id': '1', 'name': 'Россия', 'type': 'country'}, {'id': '1267655302447129', 'name': 'Краснодарский край', 'type': 'region'}, {'id': '70030076204500384', 'name': 'Сириус городской округ', 'type': 'district_area'}], 'full_name': 'Сириус', 'id': '70030076204564442', 'name': 'Сириус', 'point': {'lat': 43.409577, 'lon': 39.958013}, 'subtype': 'settlement', 'subtype_specification': 'Посёлок городского типа', 'type': 'adm_div'}, {'adm_div': [{'id': '1', 'name': 'Россия', 'type': 'country'}, {'id': '1267655302447129', 'name': 'Краснодарский край', 'type': 'region'}, {'id': '70030076118166732', 'name': 'Сочи городской округ', 'type': 'district_area'}, {'city_alias': 'sochi', 'flags': {'is_default': True, 'is_district_area_center': True}, 'id': '4222747420917890', 'is_default': True, 'name': 'Сочи', 'type': 'city'}], 'full_name': 'Сочи, Центральный', 'id': '4222734536015875', 'name': 'Центральный', 'point': {'lat': 43.617517, 'lon': 39.72461}, 'subtype': 'district', 'type': 'adm_div'}, {'address_name': 'Ленина, 219а/4', 'adm_div': [{'id': '1', 'name': 'Россия', 'type': 'country'}, {'id': '1267655302447129', 'name': 'Краснодарский край', 'type': 'region'}, {'id': '70030076118166732', 'name': 'Сочи городской округ', 'type': 'district_area'}, {'city_alias': 'sochi', 'flags': {'is_default': True, 'is_district_area_center': True}, 'id': '4222747420917890', 'is_default': True, 'name': 'Сочи', 'type': 'city'}, {'id': '4222734536015874', 'name': 'Адлерский район', 'type': 'district'}, {'id': '4222786075623474', 'name': 'Адлер', 'type': 'living_area'}], 'building_name': 'Sochi Discovery World Aquarium, океанариум', 'full_name': 'Сочи, Sochi Discovery World Aquarium, океанариум', 'id': '4222760305865707', 'name': 'Sochi Discovery World Aquarium, океанариум', 'point': {'lat': 43.47189, 'lon': 39.897226}, 'purpose_name': 'Культурно-развлекательный комплекс', 'type': 'building'}, {'full_name': 'Сириус, Стадион Фишт', 'id': '70030076161901106', 'name': 'Стадион Фишт', 'point': {'lat': 43.402268, 'lon': 39.955849}, 'subtype': 'stadium', 'subtype_name': 'Sochi Stadium', 'type': 'attraction'}], 'total': 5}}
{'meta': {'api_version': '3.0.868748', 'code': 200, 'issue_date': '20220810'}, 'result': {'items': [{'adm_div': [{'id': '1267655302447181', 'name': 'Тверская область', 'type': 'region'}, {'id': '70030076118167902', 'name': 'Тверь городской округ', 'type': 'district_area'}], 'full_name': 'Тверь', 'id': '6615284722958337', 'name': 'Тверь', 'point': {'lat': 56.849983, 'lon': 35.912735}, 'subtype': 'city', 'type': 'adm_div'}, {'address_name': 'улица Коминтерна, 18', 'adm_div': [{'id': '1', 'name': 'Россия', 'type': 'country'}, {'id': '1267655302447181', 'name': 'Тверская область', 'type': 'region'}, {'id': '70030076118167902', 'name': 'Тверь городской округ', 'type': 'district_area'}, {'city_alias': 'tver', 'flags': {'is_default': True, 'is_district_area_center': True, 'is_region_center': True}, 'id': '6615284722958337', 'is_default': True, 'name': 'Тверь', 'type': 'city'}, {'id': '6615271838056450', 'name': 'Пролетарский район', 'type': 'district'}], 'building_name': 'Тверь, железнодорожный вокзал', 'full_name': 'Тверь, Тверь, железнодорожный вокзал', 'id': '6615297607875934', 'name': 'Тверь, железнодорожный вокзал', 'point': {'lat': 56.836315, 'lon': 35.892628}, 'purpose_name': 'Вокзал', 'type': 'building'}], 'total': 2}}
{'meta': {'api_version': '3.0.868748', 'code': 200, 'issue_date': '20220810'}, 'result': {'items': [{'adm_div': [{'id': '1267655302447186', 'name': 'Челябинская область', 'type': 'region'}, {'id': '70030076118168029', 'name': 'Магнитогорский городской округ', 'type': 'district_area'}], 'full_name': 'Магнитогорск', 'id': '3659797467496480', 'name': 'Магнитогорск', 'point': {'lat': 53.391732, 'lon': 58.980122}, 'subtype': 'city', 'type': 'adm_div'}, {'address_name': '33', 'building_name': 'Магнитогорск, аэропорт', 'full_name': 'Магнитогорск, Магнитогорск, аэропорт', 'id': '3659810352417165', 'name': 'Магнитогорск, аэропорт', 'point': {'lat': 53.391065, 'lon': 58.761414}, 'purpose_name': 'Airport', 'type': 'building'}], 'total': 2}}
{'meta': {'api_version': '3.0.868748', 'code': 200, 'issue_date': '20220810'}, 'result': {'items': [{'adm_div': [{'id': '1267655302447151', 'name': 'Ивановская область', 'type': 'region'}, {'id': '70030076118167099', 'name': 'Иваново городской округ', 'type': 'district_area'}], 'full_name': 'Иваново', 'id': '9148559513354300', 'name': 'Иваново', 'point': {'lat': 56.994695, 'lon': 40.982507}, 'subtype': 'city', 'type': 'adm_div'}, {'address_name': '152', 'building_name': 'Иваново, автовокзал', 'full_name': 'Иваново, Иваново, автовокзал', 'id': '9148572398270135', 'name': 'Иваново, автовокзал', 'point': {'lat': 56.965438, 'lon': 40.970083}, 'purpose_name': 'Terminal', 'type': 'building'}, {'address_name': '3', 'building_name': 'Иваново, железнодорожный вокзал', 'full_name': 'Иваново, Иваново, железнодорожный вокзал', 'id': '9148572398257147', 'name': 'Иваново, железнодорожный вокзал', 'point': {'lat': 57.017542, 'lon': 40.979701}, 'purpose_name': 'Terminal', 'type': 'building'}], 'total': 3}}
{'meta': {'api_version': '3.0.868748', 'code': 200, 'issue_date': '20220810'}, 'result': {'items': [{'adm_div': [{'id': '1267655302447146', 'name': 'Брянская область', 'type': 'region'}, {'id': '70030076118166956', 'name': 'Брянск городской округ', 'type': 'district_area'}], 'full_name': 'Брянск', 'id': '8726347048288259', 'name': 'Брянск', 'point': {'lat': 53.259082, 'lon': 34.352027}, 'subtype': 'city', 'type': 'adm_div'}, {'address_name': '1а', 'building_name': 'Брянск, автовокзал', 'full_name': 'Брянск, Брянск, автовокзал', 'id': '8726359933199987', 'name': 'Брянск, автовокзал', 'point': {'lat': 53.237916, 'lon': 34.347313}, 'purpose_name': 'Terminal', 'type': 'building'}, {'adm_div': [{'id': '1', 'name': 'Россия', 'type': 'country'}, {'id': '1267655302447108', 'name': 'Республика Бурятия', 'type': 'region'}, {'id': '70030076118166306', 'name': 'Кабанский район', 'type': 'district_area'}], 'full_name': 'Брянск', 'id': '70030076127890808', 'name': 'Брянск', 'point': {'lat': 52.025493, 'lon': 106.846191}, 'subtype': 'settlement', 'subtype_specification': 'Село', 'type': 'adm_div'}, {'address_name': '100', 'building_name': 'Брянск, гостиница', 'full_name': 'Брянск, Брянск, гостиница', 'id': '8726359933198796', 'name': 'Брянск, гостиница', 'point': {'lat': 53.254133, 'lon': 34.377723}, 'purpose_name': 'Hotel', 'type': 'building'}, {'full_name': 'Bryansk region', 'id': '1267655302447146', 'name': 'Bryansk region', 'point': {'lat': 53.020901, 'lon': 33.621477}, 'subtype': 'region', 'type': 'adm_div'}], 'total': 5}}
{'meta': {'api_version': '3.0.868748', 'code': 200, 'issue_date': '20220810'}, 'result': {'items': [{'adm_div': [{'id': '1267655302447136', 'name': 'Ханты-Мансийский автономный округ', 'type': 'region'}, {'id': '70030076118168128', 'name': 'Сургут городской округ', 'type': 'district_area'}], 'full_name': 'Сургут', 'id': '5489384816115713', 'name': 'Сургут', 'point': {'lat': 61.254127, 'lon': 73.39642}, 'subtype': 'city', 'type': 'adm_div'}, {'adm_div': [{'id': '1', 'name': 'Россия', 'type': 'country'}, {'id': '1267655302447175', 'name': 'Самарская область', 'type': 'region'}, {'id': '2534288402677852', 'name': 'Сергиевский район', 'type': 'district_area'}], 'full_name': 'Сургут', 'id': '70030076127908553', 'name': 'Сургут', 'point': {'lat': 53.923167, 'lon': 51.209682}, 'subtype': 'settlement', 'subtype_specification': 'Посёлок', 'type': 'adm_div'}, {'address_name': '38', 'building_name': 'Сургут Сити Молл, торгово-развлекательный центр', 'full_name': 'Сургут, Сургут Сити Молл, торгово-развлекательный центр', 'id': '5489397701033682', 'name': 'Сургут Сити Молл, торгово-развлекательный центр', 'point': {'lat': 61.239258, 'lon': 73.373868}, 'purpose_name': 'Shopping and entertainment complex', 'type': 'building'}, {'address_name': '50', 'building_name': 'Сургут, международный аэропорт им. Ф.К. Салманова', 'full_name': 'Сургут, Сургут, международный аэропорт им. Ф.К. Салманова', 'id': '5489397701029826', 'name': 'Сургут, международный аэропорт им. Ф.К. Салманова', 'point': {'lat': 61.340359, 'lon': 73.407708}, 'purpose_name': 'Airport', 'type': 'building'}], 'total': 4}}
{'meta': {'api_version': '3.0.868748', 'code': 200, 'issue_date': '20220810'}, 'result': {'items': [{'adm_div': [{'id': '1267655302447145', 'name': 'Белгородская область', 'type': 'region'}, {'id': '70030076118166932', 'name': 'Белгород городской округ', 'type': 'district_area'}], 'full_name': 'Белгород', 'id': '6474547234603025', 'name': 'Белгород', 'point': {'lat': 50.60219, 'lon': 36.584032}, 'subtype': 'city', 'type': 'adm_div'}, {'address_name': '160', 'building_name': 'Белгород, автовокзал', 'full_name': 'Белгород, Белгород, автовокзал', 'id': '6474560119515389', 'name': 'Белгород, автовокзал', 'point': {'lat': 50.638734, 'lon': 36.571701}, 'purpose_name': 'Terminal', 'type': 'building'}, {'address_name': '36', 'building_name': 'Белгород, универмаг', 'full_name': 'Белгород, Белгород, универмаг', 'id': '6474560119522332', 'name': 'Белгород, универмаг', 'point': {'lat': 50.599873, 'lon': 36.590399}, 'purpose_name': 'Shopping center', 'type': 'building'}, {'address_name': '1', 'building_name': 'Белгород, железнодорожный вокзал', 'full_name': 'Белгород, Белгород, железнодорожный вокзал', 'id': '6474560119521508', 'name': 'Белгород, железнодорожный вокзал', 'point': {'lat': 50.593387, 'lon': 36.605768}, 'purpose_name': 'Terminal', 'type': 'building'}, {'full_name': 'Belgorod region', 'id': '1267655302447145', 'name': 'Belgorod region', 'point': {'lat': 50.926913, 'lon': 37.73702}, 'subtype': 'region', 'type': 'adm_div'}], 'total': 5}}
{'meta': {'api_version': '3.0.868748', 'code': 200, 'issue_date': '20220810'}, 'result': {'items': [{'adm_div': [{'id': '1267655302447127', 'name': 'Забайкальский край', 'type': 'region'}, {'id': '70030076118168060', 'name': 'Чита городской округ', 'type': 'district_area'}], 'full_name': 'Чита', 'id': '9007822024998925', 'name': 'Чита', 'point': {'lat': 52.04413, 'lon': 113.490273}, 'subtype': 'city', 'type': 'adm_div'}, {'address_name': '11 к1', 'building_name': 'Дорожная клиническая больница на ст. Чита-2', 'full_name': 'Чита, Дорожная клиническая больница на ст. Чита-2', 'id': '9007834909904563', 'name': 'Дорожная клиническая больница на ст. Чита-2', 'point': {'lat': 52.032375, 'lon': 113.456636}, 'purpose_name': 'Medical facility', 'type': 'building'}], 'total': 2}}
{'meta': {'api_version': '3.0.868748', 'code': 200, 'issue_date': '20220810'}, 'result': {'items': [{'adm_div': [{'id': '1267655302447147', 'name': 'Владимирская область', 'type': 'region'}, {'id': '70030076118166987', 'name': 'Владимир городской округ', 'type': 'district_area'}], 'full_name': 'Владимир', 'id': '8304134583222334', 'name': 'Владимир', 'point': {'lat': 56.131185, 'lon': 40.411693}, 'subtype': 'city', 'type': 'adm_div'}, {'address_name': '2', 'building_name': 'Владимир, железнодорожный вокзал', 'full_name': 'Владимир, Владимир, железнодорожный вокзал', 'id': '8304147468129636', 'name': 'Владимир, железнодорожный вокзал', 'point': {'lat': 56.130071, 'lon': 40.420117}, 'purpose_name': 'Terminal', 'type': 'building'}, {'full_name': 'Vladimir region', 'id': '1267655302447147', 'name': 'Vladimir region', 'point': {'lat': 55.859452, 'lon': 41.128424}, 'subtype': 'region', 'type': 'adm_div'}], 'total': 3}}
{'meta': {'api_version': '3.0.868748', 'code': 200, 'issue_date': '20220810'}, 'result': {'items': [{'adm_div': [{'id': '1267655302447143', 'name': 'Архангельская область', 'type': 'region'}, {'id': '70030076118166896', 'name': 'Архангельск городской округ', 'type': 'district_area'}], 'full_name': 'Архангельск', 'id': '6896759699669069', 'name': 'Архангельск', 'point': {'lat': 64.533112, 'lon': 40.555373}, 'subtype': 'city', 'type': 'adm_div'}, {'address_name': '2', 'building_name': 'Архангельск-город, железнодорожный вокзал', 'full_name': 'Архангельск, Архангельск-город, железнодорожный вокзал', 'id': '6896772584574886', 'name': 'Архангельск-город, железнодорожный вокзал', 'point': {'lat': 64.550759, 'lon': 40.57426}, 'purpose_name': 'Terminal', 'type': 'building'}], 'total': 2}}
{'meta': {'api_version': '3.0.868748', 'code': 200, 'issue_date': '20220810'}, 'result': {'items': [{'adm_div': [{'id': '1267655302447118', 'name': 'Республика Саха (Якутия)', 'type': 'region'}, {'id': '70030076118166496', 'name': 'Якутск городской округ', 'type': 'district_area'}], 'full_name': 'Якутск', 'id': '7037497188024321', 'name': 'Якутск', 'point': {'lat': 62.037655, 'lon': 129.707847}, 'subtype': 'city', 'type': 'adm_div'}, {'address_name': '24', 'building_name': 'Якутск, автовокзал', 'full_name': 'Якутск, Якутск, автовокзал', 'id': '7037510072936105', 'name': 'Якутск, автовокзал', 'point': {'lat': 62.028896, 'lon': 129.716112}, 'purpose_name': 'Terminal', 'type': 'building'}, {'address_name': '10', 'building_name': 'Якутск, международный аэропорт международный аэропорт им. Платона Ойунского', 'full_name': 'Якутск, Якутск, международный аэропорт международный аэропорт им. Платона Ойунского', 'id': '7037510072942013', 'name': 'Якутск, международный аэропорт международный аэропорт им. Платона Ойунского', 'point': {'lat': 62.086699, 'lon': 129.750229}, 'purpose_name': 'Airport', 'type': 'building'},